Fuel Type Code,Station Name,Street Address,Intersection Directions,City,State,ZIP,Plus4,Station Phone,Status Code,Expected Date,Groups With Access Code,Access Days Time,Cards Accepted,BD Blends,NG Fill Type Code,NG PSI,EV Level1 EVSE Num,EV Level2 EVSE Num,EV DC Fast Count,EV Other Info,EV Network,EV Network Web,Geocode Status,Latitude,Longitude,Date Last Confirmed,ID,Updated At,Owner Type Code,Federal Agency ID,Federal Agency Name,Open Date,Hydrogen Status Link,NG Vehicle Class,LPG Primary,E85 Blender Pump,EV Connector Types,Country,Intersection Directions (French),Access Days Time (French),BD Blends (French),Groups With Access Code (French),Hydrogen Is Retail,Access Code,Access Detail Code,Federal Agency Code,Facility Type,CNG Dispenser Num,CNG On-Site Renewable Source,CNG Total Compression Capacity,CNG Storage Capacity,LNG On-Site Renewable Source,E85 Other Ethanol Blends,EV Pricing,EV Pricing (French),LPG Nozzle Types,Hydrogen Pressures,Hydrogen Standards,CNG Fill Type Code,CNG PSI,CNG Vehicle Class,LNG Vehicle Class,EV On-Site Renewable Source,Restricted Access,RD Blends,RD Blends (French),RD Blended with Biodiesel,RD Maximum Biodiesel Level,NPS Unit Name,CNG Station Sells Renewable Natural Gas,LNG Station Sells Renewable Natural Gas,Maximum Vehicle Class,EV Workplace Charging,Funding Sources
ELEC,BROOKFIELD PROP 300 CLAY STAT1,300 Clay St Allen Ctr Garage,1st floor garage,Houston,TX,77002,,888-758-4389,E,,Public,24 hours daily,,,,,,2,,,ChargePoint Network,http://www.chargepoint.com/,GPS,29.756604,-95.372854,2024-08-29,36378,2024-08-29 01:05:35 UTC,,,,2015-10-02,,,,,J1772,US,,,,Public,,public,,,,,,,,,,,,,,,,,,,,,,,,,,,,,false,
ELEC,Clay Cooley Nissan,4914 S IH-35,,Austin,TX,78745,,512-444-1400,E,,Public - Call ahead,Dealership business hours,,,,,,2,1,,Non-Networked,,200-8,30.20633,-97.75936,2024-02-12,39114,2024-02-12 15:25:05 UTC,P,,,2011-01-15,,,,,CHADEMO J1772,US,,,,Public - Appeler à l'avance,,public,CALL,,CAR_DEALER,,,,,,,Free,,,,,,,,,,false,,,,,,,,LD,false,
ELEC,McGavock Nissan - Abilene,818 E Overland Trail,,Abilene,TX,79606,,325-695-2970,E,,Public - Call ahead,Dealership business hours,,,,,,1,,,Non-Networked,,200-9,32.408909,-99.771463,2024-02-12,39708,2024-02-12 15:25:05 UTC,P,,,2011-03-15,,,,,J1772,US,,,,Public - Appeler à l'avance,,public,CALL,,CAR_DEALER,,,,,,,Free,,,,,,,,,,false,,,,,,,,,false,
ELEC,McGavock Nissan - Amarillo,4700 S Soncy Rd,,Amarillo,TX,79119,,806-354-3550,E,,Public,Dealership business hours,,,,,,2,,,Non-Networked,,200-9,35.159354,-101.938937,2024-02-12,39709,2024-02-12 15:25:05 UTC,P,,,2011-03-15,,,,,J1772,US,,,,Public,,public,,,CAR_DEALER,,,,,,,Free,,,,,,,,,,false,,,,,,,,,false,
ELEC,Don Davis Nissan,1320 E Interstate 20,,Arlington,TX,76018,,817-588-5475,E,,Public - Call ahead,Dealership business hours,,,,,,1,,,Non-Networked,,200-9,32.676458,-97.087169,2024-02-12,39710,2024-02-12 15:25:05 UTC,P,,,2011-03-15,,,,,J1772,US,,,,Public - Appeler à l'avance,,public,CALL,,CAR_DEALER,,,,,,,Free,,,,,,,,,,false,,,,,,,,LD,false,
ELEC,Town North Nissan,9160A Research Blvd,,Austin,TX,78758,,512-451-7411,E,,Public - Call ahead,Dealership business hours,,,,,,1,1,,Non-Networked,,200-9,30.374542,-97.731445,2024-02-12,39711,2024-02-12 15:25:05 UTC,P,,,2011-03-15,,,,,CHADEMO J1772 J1772COMBO,US,,,,Public - Appeler à l'avance,,public,CALL,,CAR_DEALER,,,,,,,Free,,,,,,,,,,false,,,,,,,,LD,false,
ELEC,Baytown Nissan,5445 I-10 E,,Baytown,TX,77521,,281-421-7442,E,,Public - Call ahead,Dealership business hours,,,,,,1,,,Non-Networked,,GPS,29.80725299717069,-94.97383364868773,2024-02-12,39712,2024-02-12 15:25:05 UTC,P,,,2011-03-15,,,,,J1772,US,,,,Public - Appeler à l'avance,,public,CALL,,CAR_DEALER,,,,,,,Free,,,,,,,,,,false,,,,,,,,,false,
ELEC,Mike Smith Nissan,1515 Interstate 10 S,,Beaumont,TX,77701,,409-833-7100,E,,Public - Call ahead,Dealership business hours,,,,,,1,,,Non-Networked,,200-9,30.062535,-94.133511,2024-02-12,39713,2024-02-12 15:25:05 UTC,P,,,2011-03-15,,,,,J1772,US,,,,Public - Appeler à l'avance,,public,CALL,,CAR_DEALER,,,,,,,Free,,,,,,,,,,false,,,,,,,,,false,
ELEC,Grubbs Nissan,310 Airport Fwy,,Bedford,TX,76022,,817-268-1000,E,,Public - Call ahead,Dealership business hours,,,,,,1,2,,Non-Networked,,200-8,32.83907,-97.16206,2024-02-12,39714,2024-02-12 15:25:05 UTC,P,,,2011-03-15,,,,,CHADEMO J1772 J1772COMBO,US,,,,Public - Appeler à l'avance,,public,CALL,,CAR_DEALER,,,,,,,Free,,,,,,,,,,false,,,,,,,,LD,false,
ELEC,Douglass Nissan,1001 Earl Rudder Fwy S,,College Station,TX,77845,,979-764-7726,E,,Public - Call ahead,Dealership business hours,,,,,,1,,,Non-Networked,,200-9,30.639201,-96.30671,2024-02-12,39715,2024-02-12 15:25:05 UTC,P,,,2011-03-15,,,,,J1772,US,,,,Public - Appeler à l'avance,,public,CALL,,CAR_DEALER,,,,,,,Free,,,,,,,,,,false,,,,,,,,LD,false,
ELEC,Ed Hicks Nissan,3000 S Padre Island Dr,,Corpus Christi,TX,78415,,361-854-1955,E,,Public - Call ahead,Dealership business hours,,,,,,1,,,Non-Networked,,200-9,27.73082,-97.416019,2024-02-12,39717,2024-02-12 15:25:05 UTC,P,,,2011-03-15,,,,,J1772,US,,,,Public - Appeler à l'avance,,public,CALL,,CAR_DEALER,,,,,,,Free,,,,,,,,,,false,,,,,,,,LD,false,
ELEC,Clay Cooley Nissan,39690 Lyndon B Johnson Fwy,,Dallas,TX,75237,,972-709-2000,E,,Public - Call ahead,Dealership business hours,,,,,,1,1,,Non-Networked,,200-8,32.64609,-96.86376,2024-02-12,39718,2024-02-12 15:25:05 UTC,P,,,2010-12-30,,,,,CHADEMO J1772 J1772COMBO,US,,,,Public - Appeler à l'avance,,public,CALL,,CAR_DEALER,,,,,,,Free,,,,,,,,,,false,,,,,,,,LD,false,
ELEC,Classic Nissan,2010 US Highway 75 N,,Denison,TX,75020,,903-463-9800,E,,Public - Call ahead,Dealership business hours,,,,,,1,,,Non-Networked,,GPS,33.775328,-96.58308,2024-02-12,39719,2024-02-12 15:25:05 UTC,P,,,2011-03-15,,,,,J1772,US,,,,Public - Appeler à l'avance,,public,CALL,,CAR_DEALER,,,,,,,Free,,,,,,,,,,false,,,,,,,,,false,
ELEC,Casa Nissan,5855 Montana Ave,,El Paso,TX,79925,,915-772-1488,E,,Public - Call ahead,Dealership business hours,,,,,,1,,,Non-Networked,,200-8,31.783928,-106.417267,2024-02-12,39720,2024-02-12 15:25:05 UTC,P,,,2011-03-15,,,,,J1772,US,,,,Public - Appeler à l'avance,,public,CALL,,CAR_DEALER,,,,,,,Free,,,,,,,,,,false,,,,,,,,LD,false,
ELEC,Viva Nissan,1310 N Zaragoza Rd,,El Paso,TX,79936,,915-629-5500,E,,Public - Call ahead,Dealership business hours,,,,,,1,,,Non-Networked,,200-9,31.724024,-106.302211,2024-02-12,39721,2024-02-12 15:25:05 UTC,P,,,2011-03-15,,,,,J1772,US,,,,Public - Appeler à l'avance,,public,CALL,,CAR_DEALER,,,,,,,Free,,,,,,,,,,false,,,,,,,,,false,
ELEC,Nissan of Fort Worth,3451 W Loop 820 S,,Fort Worth,TX,76116,,817-560-9000,E,,Public - Call ahead,Dealership business hours,,,,,,1,1,,Non-Networked,,200-8,32.72158,-97.47838,2024-02-12,39723,2024-02-12 15:25:05 UTC,P,,,2011-03-15,,,,,CHADEMO J1772,US,,,,Public - Appeler à l'avance,,public,CALL,,CAR_DEALER,,,,,,,Free,,,,,,,,,,false,,,,,,,,LD,false,
ELEC,Texas Nissan of Grapevine,1401 W State Highway 114,,Grapevine,TX,76051,,817-601-3600,E,,Public - Call ahead,Dealership business hours,,,,,,1,1,,Non-Networked,,200-8,32.92823,-97.09447,2024-02-12,39724,2024-02-12 15:25:05 UTC,P,,,2011-03-15,,,,,CHADEMO J1772 J1772COMBO,US,,,,Public - Appeler à l'avance,,public,CALL,,CAR_DEALER,,,,,,,Free,,,,,,,,,,false,,,,,,,,LD,false,
ELEC,Charlie Clark Nissan,3500 W Expressway 83,,Harlingen,TX,78552,,956-423-6975,E,,Public - Call ahead,Dealership business hours,,,,,,1,,,Non-Networked,,200-9,26.186259,-97.734663,2024-02-12,39725,2024-02-12 15:25:05 UTC,P,,,2011-03-15,,,,,J1772,US,,,,Public - Appeler à l'avance,,public,CALL,,CAR_DEALER,,,,,,,Free,,,,,,,,,,false,,,,,,,,LD,false,
ELEC,Baker Nissan North,19630 Northwest Fwy,,Houston,TX,77065,,281-890-5656,E,,Public - Call ahead,Dealership business hours,,,,,,1,1,,Non-Networked,,200-8,29.91328,-95.61141,2024-02-12,39726,2024-02-12 15:25:05 UTC,P,,,2011-03-15,,,,,CHADEMO J1772 J1772COMBO,US,,,,Public - Appeler à l'avance,,public,CALL,,CAR_DEALER,,,,,,,Free,,,,,,,,,,false,,,,,,,,LD,false,
ELEC,Central Houston Nissan,2901 S Loop W,,Houston,TX,77054,,713-661-9955,E,,Public - Call ahead,Dealership business hours,,,,,,1,4,,Non-Networked,,200-8,29.67646,-95.42258,2024-02-12,39727,2024-02-12 15:25:05 UTC,P,,,2011-03-15,,,,,CHADEMO J1772 J1772COMBO,US,,,,Public - Appeler à l'avance,,public,CALL,,CAR_DEALER,,,,,,,Free,,,,,,,,,,false,,,,,,,,LD,false,
ELEC,McDavid Nissan,11911 Gulf Fwy,,Houston,TX,77034,,713-941-0600,E,,Public - Call ahead,Dealership business hours,,,,,,1,1,,Non-Networked,,200-9,29.625565,-95.22531,2024-02-12,39728,2024-02-12 15:25:05 UTC,P,,,2011-03-15,,,,,CHADEMO J1772,US,,,,Public - Appeler à l'avance,,public,CALL,,CAR_DEALER,,,,,,,Free,,,,,,,,,,false,,,,,,,,LD,false,
ELEC,Mossy Nissan,12150 Katy Fwy,,Houston,TX,77079,,281-496-2200,E,,Public - Call ahead,Dealership business hours,,,,,,1,1,,Non-Networked,,200-8,29.78628,-95.6005,2024-02-12,39729,2024-02-12 15:25:05 UTC,P,,,2011-03-15,,,,,CHADEMO J1772,US,,,,Public - Appeler à l'avance,,public,CALL,,CAR_DEALER,,,,,,,Free,,,,,,,,,,false,,,,,,,,LD,false,
ELEC,Tom Peacock Nissan,15300 North Fwy,,Houston,TX,77090,,855-969-1871,E,,Public - Call ahead,Dealership business hours,,,,,,1,1,,Non-Networked,,200-8,29.99016,-95.42236,2024-02-12,39730,2024-02-12 15:25:05 UTC,P,,,2011-03-15,,,,,CHADEMO J1772,US,,,,Public - Appeler à l'avance,,public,CALL,,CAR_DEALER,,,,,,,Free,,,,,,,,,,false,,,,,,,,LD,false,
ELEC,Robbins Nissan,18711 Highway 59 N,,Humble,TX,77338,,281-446-3181,E,,Public - Call ahead,Dealership business hours,,,,,,1,,,Non-Networked,,200-9,29.990275,-95.275606,2024-02-12,39731,2024-02-12 15:25:05 UTC,P,,,2011-03-15,,,,,J1772,US,,,,Public - Appeler à l'avance,,public,CALL,,CAR_DEALER,,,,,,,Free,,,,,,,,,,false,,,,,,,,,false,
ELEC,Clay Cooley Nissan,1500 E Airport Fwy,,Irving,TX,75062,,972-438-4300,E,,Public - Call ahead,Dealership business hours,,,,,,1,2,,Non-Networked,,200-8,32.83590364848205,-96.93415799873351,2024-02-12,39732,2024-02-12 15:25:05 UTC,P,,,2011-03-15,,,,,CHADEMO J1772 J1772COMBO,US,,,,Public - Appeler à l'avance,,public,CALL,,CAR_DEALER,,,,,,,Free,,,,,,,,,,true,,,,,,,,LD,false,
ELEC,Katy Nissan,25550 Kingsland Blvd,,Katy,TX,77494,,281-305-8961,E,,Public - Call ahead,Dealership business hours,,,,,,1,,,Non-Networked,,200-9,29.775354,-95.817237,2024-02-12,39733,2024-02-12 15:25:05 UTC,P,,,2011-03-15,,,,,J1772,US,,,,Public - Appeler à l'avance,,public,CALL,,CAR_DEALER,,,,,,,Free,,,,,,,,,,false,,,,,,,,,false,
ELEC,Bates Nissan,5501 E Central Texas Expy,,Killeen,TX,76543,,254-699-7181,E,,Public - Call ahead,Dealership business hours,,,,,,1,,,Non-Networked,,200-9,31.078549,-97.692745,2024-02-12,39734,2024-02-12 15:25:05 UTC,P,,,2011-03-15,,,,,J1772,US,,,,Public - Appeler à l'avance,,public,CALL,,CAR_DEALER,,,,,,,Free,,,,,,,,,,false,,,,,,,,,false,
ELEC,Family Nissan of Laredo,3701 E Saunders St,,Laredo,TX,78041,,956-523-8888,E,,Public - Call ahead,Dealership business hours,,,,,,1,,,Non-Networked,,200-9,27.528418,-99.458211,2024-02-12,39736,2024-02-12 15:25:05 UTC,P,,,2011-03-15,,,,,J1772,US,,,,Public - Appeler à l'avance,,public,CALL,,CAR_DEALER,,,,,,,Free,,,,,,,,,,false,,,,,,,,,false,
ELEC,Clear Lake Nissan,2150 Gulf Fwy,,League City,TX,77573,,281-557-5300,E,,Public - Call ahead,Dealership business hours,,,,,,1,,,Non-Networked,,200-9,29.484543,-95.10255,2024-02-12,39737,2024-02-12 15:25:05 UTC,P,,,2011-03-15,,,,,J1772,US,,,,Public - Appeler à l'avance,,public,CALL,,CAR_DEALER,,,,,,,Free,,,,,,,,,,false,,,,,,,,,false,
ELEC,AutoNation Nissan - Lewisville,1601 S Stemmons Fwy,,Lewisville,TX,75067,,972-420-9500,E,,Public - Call ahead,Dealership business hours,,,,,,1,1,,Non-Networked,,200-9,33.022937,-96.988337,2024-02-12,39738,2024-02-12 15:25:05 UTC,P,,,2011-03-15,,,,,CHADEMO J1772 J1772COMBO,US,,,,Public - Appeler à l'avance,,public,CALL,,CAR_DEALER,,,,,,,Free,,,,,,,,,,false,,,,,,,,LD,false,
ELEC,Patterson Nissan - Longview,3114 N Eastman Rd,,Longview,TX,75605,,903-758-4135,E,,Public - Call ahead,Dealership business hours,,,,,,1,,,Non-Networked,,200-9,32.553772,-94.727241,2024-02-12,39739,2024-02-12 15:25:05 UTC,P,,,2011-03-15,,,,,J1772,US,,,,Public - Appeler à l'avance,,public,CALL,,CAR_DEALER,,,,,,,Free,,,,,,,,,,false,,,,,,,,,false,
ELEC,McGavock Nissan,6312 Milwaukee Ave,,Lubbock,TX,79424,,806-783-8484,E,,Public - Call ahead,8am-pm M-Sat,,,,,,,1,,Non-Networked,,GPS,33.535048,-101.958266,2024-05-09,39740,2024-05-09 20:32:20 UTC,P,,,2011-03-15,,,,,CHADEMO J1772COMBO,US,,,,Public - Appeler à l'avance,,public,CALL,,CAR_DEALER,,,,,,,$0.50 per kWh,,,,,,,,,,false,,,,,,,,LD,false,
ELEC,Nissan of McKinney,3800 S Central Expy,,McKinney,TX,75069,,214-544-4900,E,,Public - Call ahead,Dealership business hours,,,,,,1,1,,Non-Networked,,200-9,33.161606,-96.644662,2024-02-12,39741,2024-03-20 16:08:58 UTC,P,,,2011-03-15,,,,,CHADEMO J1772,US,,,,Public - Appeler à l'avance,,public,CALL,,CAR_DEALER,,,,,,,Free,,,,,,,,,,false,,,,,,,,LD,false,
ELEC,Trophy Nissan,5031 N Galloway Ave,,Mesquite,TX,75150,,972-613-2200,E,,Public - Call ahead,Dealership business hours,,,,,,1,2,,Non-Networked,,200-9,32.829838,-96.629967,2024-02-12,39742,2024-02-12 15:25:05 UTC,P,,,2011-03-15,,,,,CHADEMO J1772 J1772COMBO,US,,,,Public - Appeler à l'avance,,public,CALL,,CAR_DEALER,,,,,,,Free,,,,,,,,,,false,,,,,,,,LD,false,
ELEC,Nissan of Midland,4800 W Loop 250,,Midland,TX,79707,,432-694-9558,E,,Public - Call ahead,Dealership business hours,,,,,,1,,,Non-Networked,,200-9,32.024113,-102.151567,2024-02-12,39743,2024-02-12 15:25:05 UTC,P,,,2011-03-15,,,,,J1772,US,,,,Public - Appeler à l'avance,,public,CALL,,CAR_DEALER,,,,,,,Free,,,,,,,,,,false,,,,,,,,,false,
ELEC,Twin City Nissan,10549 Highway 69,,Port Arthur,TX,77640,,409-727-2779,E,,Public - Call ahead,Dealership business hours,,,,,,1,,,Non-Networked,,GPS,29.953433,-94.0071,2024-02-12,39745,2024-02-12 15:25:05 UTC,P,,,2011-03-15,,,,,J1772,US,,,,Public - Appeler à l'avance,,public,CALL,,CAR_DEALER,,,,,,,Free,,,,,,,,,,false,,,,,,,,,false,
ELEC,Courtesy Nissan,1777 N Central Expy,,Richardson,TX,75080,,,E,,Public - Call ahead,Dealership business hours; contact 972-231-2600 for more information,,,,,,2,1,,Non-Networked,,GPS,32.97135,-96.719803,2024-02-12,39746,2024-02-12 15:25:05 UTC,P,,,2011-03-15,,,,,CHADEMO J1772,US,,,,Public - Appeler à l'avance,,public,CALL,,CAR_DEALER,,,,,,,Free,,,,,,,,,,false,,,,,,,,LD,false,
ELEC,Gillman Nissan,26001 Southwest Fwy,,Rosenberg,TX,77471,,281-341-2277,E,,Public - Call ahead,Dealership business hours,,,,,,1,,,Non-Networked,,200-9,29.534537,-95.772812,2024-02-12,39747,2024-02-12 15:25:05 UTC,P,,,2011-03-15,,,,,J1772,US,,,,Public - Appeler à l'avance,,public,CALL,,CAR_DEALER,,,,,,,Free,,,,,,,,,,false,,,,,,,,,false,
ELEC,Round Rock Nissan,3050 N IH-35,,Round Rock,TX,78681,,512-244-8500,E,,Public - Call ahead,Dealership business hours,,,,,,1,1,,Non-Networked,,GPS,30.54315305,-97.69371065,2024-02-12,39748,2024-02-12 15:25:05 UTC,P,,,2011-03-15,,,,,CHADEMO J1772 J1772COMBO,US,,,,Public - Appeler à l'avance,,public,CALL,,CAR_DEALER,,,,,,,Free,,,,,,,,,,false,,,,,,,,LD,false,
ELEC,Jim Bass Nissan,4052 W Houston Harte Expy,,San Angelo,TX,76901,,325-949-4621,E,,Public - Call ahead,Dealership business hours,,,,,,1,,,Non-Networked,,200-9,31.44646,-100.496244,2024-02-12,39749,2024-02-12 15:25:05 UTC,P,,,2011-03-15,,,,,J1772,US,,,,Public - Appeler à l'avance,,public,CALL,,CAR_DEALER,,,,,,,Free,,,,,,,,,,false,,,,,,,,LD,false,
ELEC,Ancira Nissan,10835 IH-10 W,,San Antonio,TX,78230,,210-558-5001,E,,Public - Call ahead,Dealership business hours,,,,,,1,,,Non-Networked,,GPS,29.543147,-98.57544,2024-02-12,39750,2024-02-12 15:25:05 UTC,P,,,2011-03-15,,,,,J1772,US,,,,Public - Appeler à l'avance,,public,CALL,,CAR_DEALER,,,,,,,Free,,,,,,,,,,false,,,,,,,,LD,false,
ELEC,Gunn Nissan,750 NE Loop 410,,San Antonio,TX,78209,,888-693-8380,E,,Public - Call ahead,Dealership business hours,,,,,,1,,,Non-Networked,,200-8,29.517253,-98.467365,2024-02-12,39751,2024-02-12 15:25:05 UTC,P,,,2011-03-15,,,,,J1772,US,,,,Public - Appeler à l'avance,,public,CALL,,CAR_DEALER,,,,,,,Free,,,,,,,,,,false,,,,,,,,LD,false,
ELEC,Ingram Park Nissan,6990 NW Loop 410,,San Antonio,TX,78238,,210-681-6300,E,,Public - Call ahead,Dealership business hours,,,,,,1,,,Non-Networked,,200-9,29.457047,-98.625324,2024-02-12,39752,2024-02-12 15:25:05 UTC,P,,,2011-03-15,,,,,J1772,US,,,,Public - Appeler à l'avance,,public,CALL,,CAR_DEALER,,,,,,,Free,,,,,,,,,,false,,,,,,,,,false,
ELEC,World Car Nissan,12908 IH-35 N,,San Antonio,TX,78233,,210-599-5959,E,,Public - Call ahead,Dealership business hours,,,,,,1,,,Non-Networked,,GPS,29.556508,-98.34469,2024-02-12,39753,2024-02-12 15:25:05 UTC,P,,,2011-03-15,,,,,J1772,US,,,,Public - Appeler à l'avance,,public,CALL,,CAR_DEALER,,,,,,,Free,,,,,,,,,,false,,,,,,,,,false,
ELEC,Nissan of San Marcos,2980 S IH-35,,San Marcos,TX,78666,,512-353-5116,E,,Public - Call ahead,Dealership business hours,,,,,,1,,,Non-Networked,,GPS,30.4963137,-97.6809454,2024-02-12,39754,2024-02-12 15:25:05 UTC,P,,,2011-03-15,,,,,J1772,US,,,,Public - Appeler à l'avance,,public,CALL,,CAR_DEALER,,,,,,,Free,,,,,,,,,,false,,,,,,,,,false,
ELEC,Nissan of Silsbee,3480 Highway 96 Bypass,,Silsbee,TX,77656,,409-299-3221,E,,Public - Call ahead,Dealership business hours,,,,,,1,,,Non-Networked,,GPS,30.314894,-94.18396,2024-02-12,39755,2024-02-12 15:25:05 UTC,P,,,2011-03-15,,,,,J1772,US,,,,Public - Appeler à l'avance,,public,CALL,,CAR_DEALER,,,,,,,Free,,,,,,,,,,false,,,,,,,,,false,
ELEC,Sterling McCall Nissan,12230 Southwest Fwy,,Stafford,TX,77477,,281-243-8600,E,,Public - Call ahead,Dealership business hours,,,,,,1,1,,Non-Networked,,200-8,29.64607,-95.57668,2024-02-12,39756,2024-02-12 15:25:05 UTC,P,,,2011-03-15,,,,,CHADEMO J1772 J1772COMBO,US,,,,Public - Appeler à l'avance,,public,CALL,,CAR_DEALER,,,,,,,Free,,,,,,,,,,false,,,,,,,,LD,false,
ELEC,Garlyn Shelton Nissan,5420 Midway Dr,,Temple,TX,76502,,254-773-4828,E,,Public - Call ahead,Dealership business hours,,,,,,1,1,,Non-Networked,,200-9,31.079653,-97.410328,2024-02-12,39757,2024-02-12 15:25:05 UTC,P,,,2011-03-15,,,,,CHADEMO J1772,US,,,,Public - Appeler à l'avance,,public,CALL,,CAR_DEALER,,,,,,,Free,,,,,,,,,,false,,,,,,,,,false,
ELEC,Peltier Nissan,3201 W-SW Loop 323,,Tyler,TX,75701,,903-561-7300,E,,Public - Call ahead,Dealership business hours,,,,,,1,,,Non-Networked,,GPS,32.31165413012184,-95.34249985662234,2024-02-12,39758,2024-02-12 15:25:05 UTC,P,,,2011-03-15,,,,,J1772,US,,,,Public - Appeler à l'avance,,public,CALL,,CAR_DEALER,,,,,,,Free,,,,,,,,,,false,,,,,,,,,false,
ELEC,Victory Nissan,6003 N Navarro St,,Victoria,TX,77904,,361-578-5000,E,,Public - Call ahead,Dealership business hours,,,,,,1,,,Non-Networked,,200-9,28.851423,-96.997881,2024-02-12,39759,2024-02-12 15:25:05 UTC,P,,,2011-03-15,,,,,J1772,US,,,,Public - Appeler à l'avance,,public,CALL,,CAR_DEALER,,,,,,,Free,,,,,,,,,,false,,,,,,,,,false,
ELEC,Douglas Nissan,5605 Legendlake Pkwy,,Waco,TX,76712,,254-776-8016,E,,Public - Call ahead,Dealership business hours,,,,,,1,,,Non-Networked,,200-9,31.495348,-97.160226,2024-02-12,39760,2024-02-12 15:25:05 UTC,P,,,2011-03-15,,,,,J1772,US,,,,Public - Appeler à l'avance,,public,CALL,,CAR_DEALER,,,,,,,Free,,,,,,,,,,false,,,,,,,,,false,
ELEC,Southwest Nissan,3050 Fort Worth Hwy,,Weatherford,TX,76087,,817-596-3811,E,,Public - Call ahead,Dealership business hours,,,,,,1,,,Non-Networked,,200-9,32.7561,-97.705239,2024-02-12,39761,2024-02-12 15:25:05 UTC,P,,,2011-03-15,,,,,J1772,US,,,,Public - Appeler à l'avance,,public,CALL,,CAR_DEALER,,,,,,,Free,,,,,,,,,,false,,,,,,,,,false,
ELEC,Nissan of Wichita Falls,4000 Kell Blvd,,Wichita Falls,TX,76309,,940-691-6888,E,,Public - Call ahead,Dealership business hours,,,,,,1,,,Non-Networked,,200-9,33.88049,-98.545953,2024-02-12,39762,2024-02-12 15:25:05 UTC,P,,,2011-03-15,,,,,J1772,US,,,,Public - Appeler à l'avance,,public,CALL,,CAR_DEALER,,,,,,,Free,,,,,,,,,,false,,,,,,,,,false,
ELEC,PIE AE OTC 3FL PKGSTA3,505 Barton Springs Rd,,Austin,TX,78704,,888-758-4389,E,,Public,24 hours daily,,,,,,2,,,ChargePoint Network,http://www.chargepoint.com/,GPS,30.256917,-97.749169,2024-08-29,40372,2024-08-29 01:01:54 UTC,,,,2011-05-15,,,,,J1772,US,,,,Public,,public,,,,,,,,,,,,,,,,,,,,,,,,,,,,,false,
ELEC,PIE AE ANIMAL SERVICE2,7201 Levander Loop,,Austin,TX,78702,,888-758-4389,E,,Public,24 hours daily,,,,,,2,,,ChargePoint Network,http://www.chargepoint.com/,GPS,30.251357,-97.689015,2024-08-29,41265,2024-08-29 01:01:30 UTC,,,,2011-12-31,,,,,J1772,US,,,,Public,,public,,,,,,,,,,,,,,,,,,,,,,,,,,,,,false,
ELEC,PIE AE PUBDITTMAR2,1009 W Dittmar Rd,,Austin,TX,78745,,888-758-4389,E,,Public,24 hours daily,,,,,,2,,,ChargePoint Network,http://www.chargepoint.com/,GPS,30.18534,-97.801184,2024-08-29,41266,2024-08-29 01:01:55 UTC,,,,2011-09-01,,,,,J1772,US,,,,Public,,public,,,,,,,,,,,,,,,,,,,,,,,,,,,,,false,
ELEC,PIE AE MILWOOD LIB 2,12500 Amherst Dr,,Austin,TX,78727,,888-758-4389,E,,Public,24 hours daily,,,,,,2,,,ChargePoint Network,http://www.chargepoint.com/,GPS,30.422284,-97.71646,2024-08-29,41269,2024-08-29 01:01:43 UTC,,,,2011-09-01,,,,,J1772,US,,,,Public,,public,,,,,,,,,,,,,,,,,,,,,,,,,,,,,false,
ELEC,PIE AE PUB-STDAVIDSST1,710 Trinity St,"By main entrance, parking garage on Trinity ST.",Austin,TX,78701,,888-758-4389,E,,Public,24 hours daily,,,,,,2,,,ChargePoint Network,http://www.chargepoint.com/,GPS,30.268887,-97.738936,2024-08-29,41272,2024-08-29 01:28:06 UTC,,,,2015-10-02,,,,,J1772,US,,,,Public,,public,,,,,,,,,,,,,,,,,,,,,,,,,,,,,false,
ELEC,Mission Trail Baptist Hospital,3333 Research Plaza,Located in the main parking lot,San Antonio,TX,78235,,210-297-3000,E,,Public,24 hours daily,,,,,,6,,,Non-Networked,,200-8,29.343808,-98.436931,2023-08-10,41941,2024-01-31 22:07:01 UTC,P,,,2011-11-15,,,,,J1772,US,,,,Public,,public,,,HOSPITAL,,,,,,,Free,,,,,,,,,,false,,,,,,,,,false,
ELEC,Park 'N Fly,15850 John F Kennedy Blvd,,Houston,TX,77032,,281-590-5173,E,,Public,24 hours daily,,,,,,1,,,Non-Networked,,GPS,29.94917,-95.33138,2023-01-10,42209,2023-02-14 15:54:11 UTC,P,,,2011-10-06,,,,,J1772,US,,,,Public,,public,,,PAY_GARAGE,,,,,,,$5 per session,,,,,,,,,,false,,,,,,,,LD,false,
ELEC,ACC RRC 4,4400 College Park Dr,,Round Rock,TX,78665,,888-758-4389,E,,Public,24 hours daily,,,,,,2,,,ChargePoint Network,http://www.chargepoint.com/,GPS,30.563925,-97.658312,2024-08-29,43281,2024-08-29 01:02:16 UTC,,,,2015-10-02,,,,,J1772,US,,,,Public,,public,,,,,,,,,,,,,,,,,,,,,,,,,,,,,false,
ELEC,WHOLE FOODS MKT BEE CAVE ST1,12601 Hill Country Blvd,,Bee Cave,TX,78738,,888-758-4389,T,2024-06-25,TEMPORARILY UNAVAILABLE (Public),24 hours daily,,,,,,2,,,ChargePoint Network,http://www.chargepoint.com/,GPS,30.307388,-97.938035,2024-08-29,46369,2024-08-29 00:56:46 UTC,,,,2015-10-02,,,,,J1772,US,,,,TEMPORAIREMENT SUSPENDU (Public),,public,,,,,,,,,,,,,,,,,,,,,,,,,,,,,false,
ELEC,Bert Ogden Nissan,721 N Jackson Rd,,McAllen,TX,78501,,956-631-6666,E,,Public - Call ahead,Dealership business hours,,,,,,1,,,Non-Networked,,200-9,26.20814,-98.202844,2024-02-12,47533,2024-02-12 15:25:05 UTC,P,,,2012-01-31,,,,,J1772,US,,,,Public - Appeler à l'avance,,public,CALL,,CAR_DEALER,,,,,,,Free,,,,,,,,,,false,,,,,,,,,false,
ELEC,Keating Nissan,333 Interstate 45 S,,Conroe,TX,77301,,936-760-2446,E,,Public - Call ahead,Dealership business hours,,,,,,1,1,,Non-Networked,,200-8,30.30312,-95.46655,2024-02-12,47866,2024-02-12 15:25:05 UTC,P,,,2012-01-31,,,,,CHADEMO J1772,US,,,,Public - Appeler à l'avance,,public,CALL,,CAR_DEALER,,,,,,,Free,,,,,,,,,,false,,,,,,,,LD,false,
ELEC,Nissan of Burleson,300 N Burleson Blvd,,Burleson,TX,76028,,817-484-3500,E,,Public - Call ahead,Dealership business hours,,,,,,1,,,Non-Networked,,200-9,32.54779,-97.315322,2024-02-12,49727,2024-02-12 15:25:05 UTC,P,,,2012-10-25,,,,,J1772,US,,,,Public - Appeler à l'avance,,public,CALL,,CAR_DEALER,,,,,,,Free,,,,,,,,,,false,,,,,,,,LD,false,
ELEC,Fred Haas Nissan,24202 Tomball Pkwy,,Tomball,TX,77375,,281-297-7000,E,,Public - Call ahead,Dealership business hours,,,,,,1,,,Non-Networked,,GPS,30.033375,-95.602006,2024-02-12,49740,2024-02-12 15:25:05 UTC,P,,,2012-10-25,,,,,J1772,US,,,,Public - Appeler à l'avance,,public,CALL,,CAR_DEALER,,,,,,,Free,,,,,,,,,,false,,,,,,,,,false,
ELEC,PIE AE ERCOT 3,7620 Metro Center Dr,,Austin,TX,78744,,888-758-4389,E,,Public,24 hours daily,,,,,,2,,,ChargePoint Network,http://www.chargepoint.com/,GPS,30.216443,-97.69223,2024-08-29,52837,2024-08-29 01:17:22 UTC,,,,2015-10-02,,,,,J1772,US,,,,Public,,public,,,,,,,,,,,,,,,,,,,,,,,,,,,,,false,
ELEC,David McDavid Ford,300 W Loop 820 S,,Fort Worth,TX,76108,,682-200-1952,E,,Public - Call ahead,Dealership business hours; service use only,,,,,,2,,,Non-Networked,,200-9,32.757071,-97.481258,2024-08-15,53989,2024-08-15 19:57:12 UTC,P,,,2013-04-01,,,,,J1772,US,,,,Public - Appeler à l'avance,,public,CALL,,CAR_DEALER,,,,,,,Free,,,,,,,,,,true,,,,,,,,LD,false,
ELEC,Mac Haik Ford,10333 Katy Fwy,,Houston,TX,77024,,713-932-5000,E,,Public - Call ahead,Dealership business hours; for service use only,,,,,,2,,,Non-Networked,,200-9,29.782912,-95.552599,2022-06-14,53990,2024-08-16 17:11:38 UTC,P,,,2013-04-01,,,,,J1772,US,,,,Public - Appeler à l'avance,,public,CALL,,CAR_DEALER,,,,,,,,,,,,,,,,,true,,,,,,,,LD,false,
ELEC,Westway Ford,801 W Airport Fwy,,Irving,TX,75062,,972-584-9033,E,,Public - Call ahead,Dealership business hours; see service department for assistance,,,,,,1,,,Non-Networked,,200-9,32.839105,-96.955357,2023-08-10,53991,2024-06-17 18:07:50 UTC,P,,,2013-11-01,,,,,J1772,US,,,,Public - Appeler à l'avance,,public,CALL,,CAR_DEALER,,,,,,,Free,,,,,,,,,,false,,,,,,,,LD,false,
ELEC,Rockwall Ford,990 E I-30,,Rockwall,TX,75087,,972-290-2200,E,,Public - Call ahead,Dealership business hours; drivers must stay with their vehicle for duration of charge,,,,,,1,,,Non-Networked,,200-9,32.907799,-96.453575,2023-08-10,53992,2024-01-31 22:07:01 UTC,P,,,2015-07-01,,,,,J1772,US,,,,Public - Appeler à l'avance,,public,CALL,,CAR_DEALER,,,,,,,Free,,,,,,,,,,false,,,,,,,,LD,false,
ELEC,PIE AE PUBHILL.CGAL1,12901 Hill Country Blvd,,Bee Cave,TX,78738,,888-758-4389,E,,Public,24 hours daily,,,,,,2,,,ChargePoint Network,http://www.chargepoint.com/,GPS,30.309283,-97.94238,2024-08-29,56636,2024-08-29 01:12:02 UTC,,,,2015-10-02,,,,,J1772,US,,,,Public,,public,,,,,,,,,,,,,,,,,,,,,,,,,,,,,false,
ELEC,Brown Nissan,2300 Veterans Blvd,,Del Rio,TX,78840,,830-775-8259,E,,Public - Call ahead,Dealership business hours,,,,,,1,,,Non-Networked,,200-9,29.391332,-100.905958,2024-02-12,61261,2024-02-12 15:25:05 UTC,P,,,2014-02-01,,,,,J1772,US,,,,Public - Appeler à l'avance,,public,CALL,,CAR_DEALER,,,,,,,Free,,,,,,,,,,false,,,,,,,,,false,
ELEC,PIE AE PUBPEARSON CTR1,400 Center Ridge Dr,,Austin,TX,78753,,888-758-4389,E,,Public,24 hours daily,,,,,,2,,,ChargePoint Network,http://www.chargepoint.com/,GPS,30.417411,-97.664204,2024-08-29,62244,2024-08-29 01:22:39 UTC,,,,2015-10-02,,,,,J1772,US,,,,Public,,public,,,,,,,,,,,,,,,,,,,,,,,,,,,,,false,
ELEC,Bill Utter Ford,4901 S I-35 E,,Denton,TX,76210,,940-321-7400,E,,Public - Call ahead,Dealership business hours,,,,,,1,,,Non-Networked,,GPS,33.16218,-97.071252,2022-07-12,63655,2023-02-14 15:54:11 UTC,P,,,2014-09-01,,,,,J1772,US,,,,Public - Appeler à l'avance,,public,CALL,,CAR_DEALER,,,,,,,Free,,,,,,,,,,false,,,,,,,,MD,false,
ELEC,Northside Ford,12300 San Pedro,,San Antonio,TX,78216,,210-525-9800,E,,Public - Call ahead,Dealership business hours,,,,,,2,,,Non-Networked,,200-9,29.551307,-98.485292,2023-08-10,63984,2024-01-31 22:07:01 UTC,P,,,2014-08-01,,,,,J1772,US,,,,Public - Appeler à l'avance,,public,CALL,,CAR_DEALER,,,,,,,Free,,,,,,,,,,true,,,,,,,,LD,false,
ELEC,PIE AE PALMER STATION4,846888 Barton Springs Rd,In Parking garage,Austin,TX,78704,,888-758-4389,E,,Public,24 hours daily,,,,,,2,,,ChargePoint Network,http://www.chargepoint.com/,GPS,30.259769,-97.752509,2024-08-29,65374,2024-08-29 01:16:47 UTC,,,,2015-10-02,,,,,J1772,US,,,,Public,,public,,,,,,,,,,,,,,,,,,,,,,,,,,,,,false,
ELEC,PIE AE HEB E51ST DCFC1,1801 E 51st St,HEB parking lot NE corner,Austin,TX,78723,,888-758-4389,E,,Public,24 hours daily,,,,,,,1,,ChargePoint Network,http://www.chargepoint.com/,GPS,30.302274,-97.697951,2024-08-29,65642,2024-08-29 01:23:28 UTC,,,,2015-02-11,,,,,CHADEMO J1772COMBO,US,,,,Public,,public,,,,,,,,,,,,,,,,,,,,,,,,,,,,,false,
ELEC,PEARL CIA GARAGE F2-2,2102 Emma Koehler,2nd floor,San Antonio,TX,78215,,888-758-4389,E,,Public,24 hours daily,,,,,,2,,,ChargePoint Network,http://www.chargepoint.com/,GPS,29.443095,-98.480246,2024-08-29,65763,2024-08-29 01:03:26 UTC,,,,2015-10-02,,,,,J1772,US,,,,Public,,public,,,,,,,,,,,,,,,,,,,,,,,,,,,,,false,
ELEC,Fredericksburg Street Parking,206 W Austin St,,Fredericksburg,TX,78624,,,E,,Public,24 hours daily; Accepts MobileNow!,,,,,,2,,,Non-Networked,,200-8,30.277466,-98.873169,2023-08-10,68883,2024-01-31 22:07:01 UTC,P,,,2015-08-01,,,,,J1772,US,,,,Public,,public,,,STREET_PARKING,,,,,,,$2 per hour,,,,,,,,,,false,,,,,,,,LD,false,
ELEC,Best Western - Llano,901 W Young St,,Llano,TX,78643,,325-247-4101,E,,Public,24 hours daily; No credit card reader available,,,,,,1,,,Non-Networked,,200-9,30.760105,-98.686483,2023-01-10,68884,2023-02-14 15:54:11 UTC,P,,,2015-06-01,,,,,J1772,US,,,,Public,,public,,,HOTEL,,,,,,,Free,,,,,,,,,,true,,,,,,,,LD,false,
ELEC,Round Rock Kia,600 Jeffrey Way,,Round Rock,TX,78665,,512-617-5000,E,,Public - Call ahead,Dealership business hours,,,,,,2,,,Non-Networked,,200-9,30.540789,-97.690992,2022-06-14,70317,2024-08-19 14:01:19 UTC,P,,,2015-10-01,,,,,J1772,US,,,,Public - Appeler à l'avance,,public,CALL,,CAR_DEALER,,,,,,,Free,,,,,,,,,,false,,,,,,,,LD,false,
ELEC,HPI 3700 3900 SC 3,3900 N Capital of Texas Hwy,,Austin,TX,78746,,888-758-4389,E,,Public,24 hours daily,,,,,,2,,,ChargePoint Network,http://www.chargepoint.com/,GPS,30.337931,-97.807977,2024-08-29,70514,2024-08-29 01:05:03 UTC,,,,2015-10-02,,,,,J1772,US,,,,Public,,public,,,,,,,,,,,,,,,,,,,,,,,,,,,,,false,
ELEC,CNG Energy Partners - Lake Jackson - Public,204 Medical Dr,,Lake Jackson,TX,77566,,214-549-0555,T,2025-12-15,TEMPORARILY UNAVAILABLE (Public),9am-5pm daily,,,,,,2,,,Non-Networked,,200-8,29.026255,-95.449404,2024-08-15,71180,2024-08-15 19:57:12 UTC,P,,,2015-12-15,,,,,J1772,US,,,,TEMPORAIREMENT SUSPENDU (Public),,public,,,STANDALONE_STATION,,,,,,,Free,,,,,,,,,,false,,,,,,,,LD,false,
ELEC,Sonic Drive-In,121 W Bandera Rd,,Boerne,TX,78006,,830-249-9666,E,,Public,24 hours daily,,,,,,2,,,Non-Networked,,200-9,29.779853,-98.729985,2022-06-14,74139,2023-02-14 15:54:11 UTC,P,,,2016-03-14,,,,,J1772,US,,,,Public,,public,,,RESTAURANT,,,,,,,Free,,,,,,,,,,false,,,,,,,,LD,false,
ELEC,PIE AE PALMER STATION5,736 Barton Springs Rd,"3rd Floor in garage, parking for Palmer Event Center",Austin,TX,78704,,888-758-4389,E,,Public,24 hours daily,,,,,,2,,,ChargePoint Network,http://www.chargepoint.com/,GPS,30.259705,-97.752496,2024-08-29,78778,2024-08-29 01:16:47 UTC,,,,2016-09-28,,,,,J1772,US,,,,Public,,public,,,,,,,,,,,,,,,,,,,,,,,,,,,,,false,
ELEC,PIE AE PUBHILL.CGAL2,12701 Hill Country Blvd,,Bee Cave,TX,78738,,888-758-4389,E,,Public,24 hours daily,,,,,,2,,,ChargePoint Network,http://www.chargepoint.com/,GPS,30.307769,-97.93863,2024-08-29,78974,2024-08-29 01:11:52 UTC,,,,2016-10-13,,,,,J1772,US,,,,Public,,public,,,,,,,,,,,,,,,,,,,,,,,,,,,,,false,
ELEC,Homewood Suites - New Braunfels,620 Oxford Dr,,New Braunfels,TX,78130,,830-627-4424,E,,Public,24 hours daily; for guest use only,,,,,,1,,,Non-Networked,,GPS,29.717508,-98.071875,2024-08-15,79136,2024-08-15 19:57:12 UTC,P,,,2016-10-06,,,,,TESLA,US,,,,Public,,public,,,HOTEL,,,,,,,Free,,,,,,,,,,true,,,,,,,,LD,false,
ELEC,CITY VIEW STATION1,1120 S Capital of Texas Hwy,,Austin,TX,78746,,888-758-4389,E,,Public,24 hours daily,,,,,,2,,,ChargePoint Network,http://www.chargepoint.com/,GPS,30.280698,-97.824024,2024-08-29,81050,2024-08-29 01:02:34 UTC,,,,2017-01-28,,,,,J1772,US,,,,Public,,public,,,,,,,,,,,,,,,,,,,,,,,,,,,,,false,
ELEC,Fort Worth Business Assistance Center,1150 South Fwy,Inside of the Guinn Complex off I35 South,Fort Worth,TX,76104,,817-659-1030,E,,Public,"7am-7pm M-F, 7am-3pm Sat; must have RFID card or call Revitalize Charging Solutions when on-site at 817-659-1030 for access",,,,,,2,,,Non-Networked,,GPS,32.732131,-97.32119,2023-01-10,82166,2023-02-14 15:54:11 UTC,LG,,,2017-03-01,,,,,J1772,US,,,,Public,,public,,,MUNI_GOV,,,,,,,$1 per hour,,,,,,,,,,false,,,,,,,,LD,false,
ELEC,Bell Springs Winery,3700 Bell Springs Rd,,Dripping Springs,TX,78620,,512-643-7398,E,,Public,"11am-6pm W-F and Sun, 11am-8pm Sat; Winery customers only",,,,,,1,,,Non-Networked,,200-9,30.239462,-98.127262,2022-05-05,82592,2023-02-14 15:54:11 UTC,P,,,2017-05-01,,,,,J1772,US,,,,Public,,public,,,BREWERY_DISTILLERY_WINERY,,,,,,,Free,,,,,,,,,,true,,,,,,,,LD,false,
ELEC,STEINER RANCH 1 STEINER2,4800 Steiner Ranch Blvd,Outside Bld 8,Austin,TX,78732,,888-758-4389,E,,Public,24 hours daily,,,,,,2,,,ChargePoint Network,http://www.chargepoint.com/,GPS,30.383012,-97.874313,2024-08-29,82741,2024-08-29 00:55:34 UTC,,,,2017-05-26,,,,,J1772,US,,,,Public,,public,,,,,,,,,,,,,,,,,,,,,,,,,,,,,false,
ELEC,Nissan - Boerne,31805 Interstate Highway 10 W,,Boerne,TX,78006,,210-233-6700,E,,Public - Call ahead,Dealership business hours,,,,,,1,1,,Non-Networked,,GPS,29.753145,-98.706212,2024-02-12,85978,2024-02-12 15:25:05 UTC,P,,,2017-03-01,,,,,CHADEMO J1772,US,,,,Public - Appeler à l'avance,,public,CALL,,CAR_DEALER,,,,,,,Free,,,,,,,,,,false,,,,,,,,,false,
ELEC,Gunn Nissan - Denton,5650 S Interstate 35 E,,Corinth,TX,76210,,940-270-9000,E,,Public - Call ahead,Dealership business hours,,,,,,2,2,,Non-Networked,,200-8,33.15634,-97.06603,2024-02-12,85979,2024-02-12 15:25:05 UTC,P,,,2017-03-01,,,,,CHADEMO J1772 J1772COMBO,US,,,,Public - Appeler à l'avance,,public,CALL,,CAR_DEALER,,,,,,,Free,,,,,,,,,,false,,,,,,,,LD,false,
ELEC,Clay Cooley Nissan,4707 Lyndon B Johnson Fwy,,Farmers Branch,TX,75244,,972-450-2400,E,,Public - Call ahead,Dealership business hours,,,,,,1,,,Non-Networked,,200-9,32.926739,-96.828116,2024-02-12,85980,2024-02-12 15:25:05 UTC,P,,,2017-03-01,,,,,J1772,US,,,,Public - Appeler à l'avance,,public,CALL,,CAR_DEALER,,,,,,,Free,,,,,,,,,,false,,,,,,,,,false,
ELEC,Crest Nissan of Frisco,6600 State Highway 121,,Frisco,TX,75034,,972-704-1525,E,,Public - Call ahead,Dealership business hours,,,,,,2,,,Non-Networked,,200-8,33.089993,-96.828691,2024-02-12,85981,2024-02-12 15:25:05 UTC,P,,,2017-03-01,,,,,J1772,US,,,,Public - Appeler à l'avance,,public,CALL,,CAR_DEALER,,,,,,,Free,,,,,,,,,,false,,,,,,,,LD,false,
ELEC,Hampton Inn - Kyle,151 Bunton Creek Rd,,Kyle,TX,78641,,512-268-9042,E,,Public,24 hours daily; for guest use only,,,,,,2,,,Non-Networked,,GPS,30.0091,-97.8611,2022-05-05,86090,2024-08-16 17:04:22 UTC,P,,,2017-08-15,,,,,J1772 TESLA,US,,,,Public,,public,,,HOTEL,,,,,,,Free,,,,,,,,,,true,,,,,,,,LD,false,
ELEC,McDonald's,2100 Central Park Blvd,,Bedford,TX,76022,,817-659-1030,E,,Public,24 hours daily; must have RFID card for access,,,,,,2,,,Non-Networked,,GPS,32.8337305,-97.2029412,2023-01-10,88035,2023-02-14 15:54:11 UTC,P,,,2017-10-09,,,,,J1772,US,,,,Public,,public,,,RESTAURANT,,,,,,,$1 per hour,,,,,,,,,,false,,,,,,,,LD,false,
ELEC,PIE AE VILLATGRACYFARM,2600 Gracy Farms Ln,Right side outside gates,Austin,TX,78758,,888-758-4389,E,,Public,24 hours daily,,,,,,2,,,ChargePoint Network,http://www.chargepoint.com/,GPS,30.405175,-97.711583,2024-08-29,88242,2024-08-29 00:55:16 UTC,,,,2017-11-01,,,,,J1772,US,,,,Public,,public,,,,,,,,,,,,,,,,,,,,,,,,,,,,,false,
ELEC,PEC HQ PEC HQ SOUTH,E Ladybird Ln,,Johnson City,TX,78636,,888-758-4389,E,,Public,24 hours daily,,,,,,2,,,ChargePoint Network,http://www.chargepoint.com/,GPS,30.274989,-98.409281,2024-08-29,88396,2024-08-29 00:55:12 UTC,,,,2017-11-10,,,,,J1772,US,,,,Public,,public,,,,,,,,,,,,,,,,,,,,,,,,,,,,,false,
ELEC,PEC HQ PEC HQ NORTH,305 E Elm St,,Johnson City,TX,78636,,888-758-4389,T,2024-06-21,TEMPORARILY UNAVAILABLE (Public),24 hours daily,,,,,,2,,,ChargePoint Network,http://www.chargepoint.com/,GPS,30.275698,-98.409638,2024-08-29,88438,2024-08-29 00:55:13 UTC,,,,2017-11-14,,,,,J1772,US,,,,TEMPORAIREMENT SUSPENDU (Public),,public,,,,,,,,,,,,,,,,,,,,,,,,,,,,,false,
ELEC,Book Nook Inn,10405 Cooks Lake Rd,,Lumberton,TX,77657,,409-225-9106,E,,Public,24 hours daily; for guest use only,,,,,,1,,,Non-Networked,,200-9,30.188091,-94.159732,2024-08-15,89912,2024-08-15 19:57:12 UTC,P,,,2017-12-15,,,,,J1772,US,,,,Public,,public,,,INN,,,,,,,Free,,,,,,,,,,true,,,,,,,,LD,false,
ELEC,Best Western - Lake Jackson Inn & Suites,702 Highway 332 E,Highway 332 E and Loganberry St,Lake Jackson,TX,77566,,979-529-2020,E,,Public,24 hours daily; for guest use only,,,,,,1,,,Non-Networked,,200-9,29.018348,-95.434176,2024-08-15,91900,2024-08-15 19:57:12 UTC,P,,,2018-01-22,,,,,J1772,US,,,,Public,,public,,,HOTEL,,,,,,,Free,,,,,,,,,,true,,,,,,,,LD,false,
ELEC,SAGEWOOD EV STATION 01,9100 General Worth Dr,,Fort Worth,TX,76177,,888-758-4389,T,2024-05-24,TEMPORARILY UNAVAILABLE (Public),24 hours daily,,,,,,2,,,ChargePoint Network,http://www.chargepoint.com/,GPS,32.905811,-97.310372,2024-08-29,92240,2024-08-29 00:57:31 UTC,,,,2018-03-07,,,,,J1772,US,,,,TEMPORAIREMENT SUSPENDU (Public),,public,,,,,,,,,,,,,,,,,,,,,,,,,,,,,false,
ELEC,THE WOODLANDS BAY 5,17189 I-45,,Conroe,TX,77385,,888-758-4389,E,,Public,24 hours daily,,,,,,1,,,ChargePoint Network,http://www.chargepoint.com/,GPS,30.206181,-95.452942,2024-08-29,92261,2024-08-29 00:57:08 UTC,,,,2018-03-07,,,,,J1772,US,,,,Public,,public,,,,,,,,,,,,,,,,,,,,,,,,,,,,,false,
ELEC,THE WOODLANDS BAY 3 AND 4,19075 I-45,,Conroe,TX,77385,,888-758-4389,E,,Public,24 hours daily,,,,,,2,,,ChargePoint Network,http://www.chargepoint.com/,GPS,30.206384,-95.453312,2024-08-29,92263,2024-08-29 00:57:06 UTC,,,,2018-03-07,,,,,J1772,US,,,,Public,,public,,,,,,,,,,,,,,,,,,,,,,,,,,,,,false,
ELEC,BRANDYWINE AUST FOUR POINTS 01,11305 4 Points Dr,1st floor garage,Austin,TX,78726,,888-758-4389,E,,Public,24 hours daily,,,,,,2,,,ChargePoint Network,http://www.chargepoint.com/,GPS,30.404059,-97.850068,2024-08-29,92339,2024-08-29 00:56:05 UTC,,,,2018-03-07,,,,,J1772,US,,,,Public,,public,,,,,,,,,,,,,,,,,,,,,,,,,,,,,false,
ELEC,WINDSOR TC MTC,3663 Cedar Springs Rd,Located in Parking lot at Modera Galleria,Dallas,TX,75219,,888-758-4389,E,,Public,24 hours daily,,,,,,2,,,ChargePoint Network,http://www.chargepoint.com/,GPS,32.807928,-96.807586,2024-08-29,92385,2024-08-29 00:54:56 UTC,,,,2018-03-07,,,,,J1772,US,,,,Public,,public,,,,,,,,,,,,,,,,,,,,,,,,,,,,,false,
ELEC,COA NEWCENTRALLIB4,710 W Cesar Chavez St,Parking Level 1,Austin,TX,78701,,888-758-4389,E,,Public,24 hours daily,,,,,,2,,,ChargePoint Network,http://www.chargepoint.com/,GPS,30.266132,-97.751803,2024-08-29,94387,2024-08-29 00:59:11 UTC,,,,2018-03-22,,,,,J1772,US,,,,Public,,public,,,,,,,,,,,,,,,,,,,,,,,,,,,,,false,
ELEC,DAL PARKING DAL GARAGE A4,Parking Garage A,Between Level 3 Elevator and Stair #2,Dallas,TX,75235,,888-758-4389,E,,Public,24 hours daily,,,,,,2,,,ChargePoint Network,http://www.chargepoint.com/,GPS,32.843451,-96.84941,2024-08-29,94545,2024-08-29 00:58:08 UTC,,,,2018-03-29,,,,,J1772,US,,,,Public,,public,,,,,,,,,,,,,,,,,,,,,,,,,,,,,false,
ELEC,DAL PARKING DAL GARAGE B1,Parking Garage B,Level 1 Main Entrance,Dallas,TX,75235,,888-758-4389,E,,Public,24 hours daily,,,,,,2,,,ChargePoint Network,http://www.chargepoint.com/,GPS,32.841325,-96.847504,2024-08-29,94546,2024-08-29 00:58:07 UTC,,,,2018-03-29,,,,,J1772,US,,,,Public,,public,,,,,,,,,,,,,,,,,,,,,,,,,,,,,false,
ELEC,La Quinta Inn & Suites,380 E Palace Pkwy,,Grand Prairie,TX,75050,,469-999-0875,E,,Public - Call ahead,24 hours daily; for hotel guest use only,,,,,,2,,,Non-Networked,,GPS,32.76108049090001,-97.00672888227842,2023-08-10,94878,2024-01-31 22:07:01 UTC,P,,,2020-12-31,,,,,J1772,US,,,,Public - Appeler à l'avance,,public,CALL,,HOTEL,,,,,,,Free,,,,,,,,,,true,,,,,,,,LD,false,
ELEC,Flophouze Hotel & Recycling the Past Shop,1132 W FM 1291 N,,Round Top,TX,78954,,609-618-7606,E,,Public,24 hours daily,,,,,,1,,,Non-Networked,,GPS,30.016869,-96.75233,2024-08-15,94972,2024-08-15 19:57:12 UTC,P,,,2018-04-10,,,,,J1772,US,,,,Public,,public,,,HOTEL,,,,,,,Free,,,,,,,,,,true,,,,,,,,LD,false,
ELEC,Original Pancake House - Addison,5220 Belt Line Rd,,Dallas,TX,75254,,888-998-2546,E,,Public,24 hours daily,,,,,,2,,,Blink Network,http://www.blinkcharging.com/,GPS,32.953741,-96.81993,2024-08-30,95070,2024-08-30 00:19:02 UTC,,,,2015-10-02,,,,,J1772,US,,,,Public,,public,,,,,,,,,,Free,,,,,,,,,,,,,,,,,,,false,
ELEC,WestBend Parking Garage (3rd Floor),1701 River Run,,Fort Worth,TX,76107,,888-998-2546,E,,Public,24 hours daily,,,,,,2,,,Blink Network,http://www.blinkcharging.com/,GPS,32.7272036,-97.3604989,2024-08-30,95150,2024-08-30 00:17:25 UTC,,,,2015-10-02,,,,,J1772,US,,,,Public,,public,,,,,,,,,,Free,,,,,,,,,,,,,,,,,,,false,
ELEC,Oak Point Rec Center - Plano,6000 Jupiter Road,,Plano,TX,75074,,888-998-2546,E,,Public,24 hours daily,,,,,,3,,,Blink Network,http://www.blinkcharging.com/,GPS,33.0554032,-96.6812402,2024-08-30,95178,2024-08-30 00:20:39 UTC,,,,2015-10-02,,,,,J1772,US,,,,Public,,public,,,,,,,,,,Free,,,,,,,,,,,,,,,,,,,false,
ELEC,George Bush Airport (IAH) Terminal Garage D/E - 3rd Floor,2800 N Terminal Rd,,Houston,TX,77032,,888-998-2546,T,2023-03-02,TEMPORARILY UNAVAILABLE (Public),24 hours daily,,,,,,1,,,Blink Network,http://www.blinkcharging.com/,GPS,29.986761,-95.334818,2024-08-30,95236,2024-08-30 00:27:40 UTC,,,,2015-10-02,,,,,J1772,US,,,,TEMPORAIREMENT SUSPENDU (Public),,public,,,,,,,,,,Free,,,,,,,,,,,,,,,,,,,false,
ELEC,Carrier Enterprise HQ,2000 Luna Rd,,Carrollton,TX,75006,,888-998-2546,E,,Public,24 hours daily,,,,,,2,,,Blink Network,http://www.blinkcharging.com/,GPS,32.9342169,-96.928106,2024-08-30,95254,2024-08-30 00:08:41 UTC,,,,2015-10-02,,,,,J1772,US,,,,Public,,public,,,,,,,,,,Free,,,,,,,,,,,,,,,,,,,false,
ELEC,Hermann Park Golf Course Parking Lot,6191 Hermann Park Dr,,Houston,TX,77030,,888-998-2546,E,,Public,24 hours daily,,,,,,3,,,Blink Network,http://www.blinkcharging.com/,GPS,29.715447,-95.388319,2024-08-30,95290,2024-08-30 00:14:04 UTC,,,,2015-10-02,,,,,J1772,US,,,,Public,,public,,,,,,,,,,Free,,,,,,,,,,,,,,,,,,,false,
ELEC,Westwood Village Regency Center,32858 FM 2978 Rd,,Magnolia,TX,77354,,888-998-2546,E,,Public,24 hours daily,,,,,,3,,,Blink Network,http://www.blinkcharging.com/,GPS,30.217551,-95.565434,2024-08-30,95332,2024-08-30 00:05:06 UTC,,,,2016-09-26,,,,,J1772,US,,,,Public,,public,,,,,,,,,,Free,,,,,,,,,,,,,,,,,,,false,
ELEC,Maribelle Davis Library,7501 Independence Pkwy,,Plano,TX,75025,,888-998-2546,E,,Public,24 hours daily,,,,,,3,,,Blink Network,http://www.blinkcharging.com/,GPS,33.080417,-96.751225,2024-08-30,95362,2024-08-30 00:08:43 UTC,,,,2015-10-02,,,,,J1772,US,,,,Public,,public,,,,,,,,,,Free,,,,,,,,,,,,,,,,,,,false,
ELEC,HOBBY Airport (HOU)-- VALET Parking,7800 Airport Blvd,,Houston,TX,77061,,888-998-2546,T,2023-03-02,TEMPORARILY UNAVAILABLE (Public),24 hours daily,,,,,,2,,,Blink Network,http://www.blinkcharging.com/,GPS,29.655111,-95.276841,2024-08-30,95420,2024-08-30 00:20:41 UTC,,,,2016-07-15,,,,,J1772,US,,,,TEMPORAIREMENT SUSPENDU (Public),,public,,,,,,,,,,Free,,,,,,,,,,,,,,,,,,,false,
ELEC,HOBBY Airport (HOU)-- ecopark Lot 2,7800 Airport Blvd,,Houston,TX,77061,,888-998-2546,T,2023-03-02,TEMPORARILY UNAVAILABLE (Public),24 hours daily,,,,,,2,,,Blink Network,http://www.blinkcharging.com/,GPS,29.6577789999,-95.275384,2024-08-30,95467,2024-08-30 00:12:18 UTC,,,,2015-10-02,,,,,J1772,US,,,,TEMPORAIREMENT SUSPENDU (Public),,public,,,,,,,,,,Free,,,,,,,,,,,,,,,,,,,false,
ELEC,Irving Convention Center,500 W Las Colinas Blvd,,Irving,TX,75039,,888-998-2546,E,,Public,24 hours daily,,,,,,4,,,Blink Network,http://www.blinkcharging.com/,GPS,32.8777052,-96.9431448,2024-08-30,95468,2024-08-30 00:20:38 UTC,,,,2015-10-02,,,,,J1772,US,,,,Public,,public,,,,,,,,,,Free,,,,,,,,,,,,,,,,,,,false,
ELEC,Original Pancake House - Grapevine,1505 William D. Tate Ave,,Grapevine,TX,76051,,888-998-2546,E,,Public,24 hours daily,,,,,,1,,,Blink Network,http://www.blinkcharging.com/,GPS,32.923323,-97.089782,2024-08-30,95470,2024-08-30 00:19:02 UTC,,,,2015-10-02,,,,,J1772,US,,,,Public,,public,,,,,,,,,,Free,,,,,,,,,,,,,,,,,,,false,
ELEC,West Irving Library,4444 W Rochelle Rd,,Irving,TX,75062,,888-998-2546,E,,Public,24 hours daily,,,,,,2,,,Blink Network,http://www.blinkcharging.com/,GPS,32.845121,-97.010235,2024-08-30,95471,2024-08-30 00:20:38 UTC,,,,2015-10-02,,,,,J1772,US,,,,Public,,public,,,,,,,,,,Free,,,,,,,,,,,,,,,,,,,false,
ELEC,14th/J Parking Lot,1295 J Ave,,Plano,TX,75074,,888-998-2546,E,,Public,24 hours daily,,,,,,3,,,Blink Network,http://www.blinkcharging.com/,GPS,33.016872,-96.700751,2024-08-30,95506,2024-08-30 00:17:25 UTC,,,,2015-10-02,,,,,J1772,US,,,,Public,,public,,,,,,,,,,Free,,,,,,,,,,,,,,,,,,,false,
ELEC,Ruggles Green - Houston Heights,748 East 11th Street,,Houston,TX,77008,,888-998-2546,E,,Public,24 hours daily,,,,,,1,,,Blink Network,http://www.blinkcharging.com/,GPS,29.7905,-95.3879,2024-08-30,95625,2024-08-30 00:17:26 UTC,,,,2015-10-02,,,,,J1772,US,,,,Public,,public,,,,,,,,,,Free,,,,,,,,,,,,,,,,,,,false,
ELEC,Ruggles Green - The Woodlands,2501 Research Forest Drive,,The Woodlands,TX,77381,,888-998-2546,E,,Public,24 hours daily,,,,,,1,,,Blink Network,http://www.blinkcharging.com/,GPS,30.177346,-95.475541,2024-08-30,95627,2024-08-30 00:17:26 UTC,,,,2015-10-02,,,,,J1772,US,,,,Public,,public,,,,,,,,,,Free,,,,,,,,,,,,,,,,,,,false,
ELEC,Sun Metro Westside,7535 Remcon Circle,,El Paso,TX,79912,,888-998-2546,E,,Public,24 hours daily,,,,,,2,,,Blink Network,http://www.blinkcharging.com/,GPS,31.834882,-106.564541,2024-08-30,95804,2024-08-30 00:05:03 UTC,,,,2015-10-02,,,,,J1772,US,,,,Public,,public,,,,,,,,,,Free,,,,,,,,,,,,,,,,,,,false,
ELEC,Twin Peaks Frisco,3475 Preston Rd,,Frisco,TX,75034,,888-998-2546,E,,Public,24 hours daily,,,,,,2,,,Blink Network,http://www.blinkcharging.com/,GPS,33.10825,-96.80626,2024-08-30,95811,2024-08-30 00:05:04 UTC,,,,2015-10-02,,,,,J1772,US,,,,Public,,public,,,,,,,,,,Free,,,,,,,,,,,,,,,,,,,false,
ELEC,Comfort Suites - Las Colinas Center,1223 Greenway Drive,,Irving,TX,75038,,888-998-2546,E,,Public,24 hours daily,,,,,,2,,,Blink Network,http://www.blinkcharging.com/,GPS,32.88996,-96.966552,2024-08-30,95906,2024-08-30 00:15:46 UTC,,,,2015-10-02,,,,,J1772,US,,,,Public,,public,,,,,,,,,,Free,,,,,,,,,,,,,,,,,,,false,
ELEC,Whiskey Cake Kitchen & Bar - Plano,3601 Dallas Parkway,,Plano,TX,75093,,888-998-2546,E,,Public,24 hours daily,,,,,,2,,,Blink Network,http://www.blinkcharging.com/,GPS,33.048462,-96.830819,2024-08-30,95967,2024-08-30 00:08:43 UTC,,,,2015-10-02,,,,,J1772,US,,,,Public,,public,,,,,,,,,,Free,,,,,,,,,,,,,,,,,,,false,
ELEC,Irving City Hall,825 W Irving Blvd,,Irving,TX,75061,,888-998-2546,E,,Public,24 hours daily,,,,,,4,,,Blink Network,http://www.blinkcharging.com/,GPS,32.813932,-96.956384,2024-08-30,96031,2024-08-30 00:08:42 UTC,,,,2015-10-02,,,,,J1772,US,,,,Public,,public,,,,,,,,,,Free,,,,,,,,,,,,,,,,,,,false,
ELEC,Twin Peaks Mesquite,18995 LBJ Freeway,,Mesquite,TX,75150,,888-998-2546,T,2024-05-05,TEMPORARILY UNAVAILABLE (Public),24 hours daily,,,,,,2,,,Blink Network,http://www.blinkcharging.com/,GPS,32.798202,-96.62708,2024-08-30,96047,2024-08-30 00:19:02 UTC,,,,2015-10-02,,,,,J1772,US,,,,TEMPORAIREMENT SUSPENDU (Public),,public,,,,,,,,,,Free,,,,,,,,,,,,,,,,,,,false,
ELEC,Bishop Arts District - 7th Street Parking Lot,324 West 7th Street,,Dallas,TX,75208,,888-998-2546,E,,Public,24 hours daily,,,,,,2,,,Blink Network,http://www.blinkcharging.com/,GPS,32.748761,-96.826846,2024-08-30,96587,2024-08-30 00:10:36 UTC,,,,2015-10-02,,,,,J1772,US,,,,Public,,public,,,,,,,,,,Free,,,,,,,,,,,,,,,,,,,false,
ELEC,YMCA - McKinney #62,300 Ridge Road,,McKinney,TX,75070,,888-998-2546,E,,Public,24 hours daily,,,,,,3,,,Blink Network,http://www.blinkcharging.com/,GPS,33.196668,-96.698734,2024-08-30,96625,2024-08-30 00:08:42 UTC,,,,2015-10-02,,,,,J1772,US,,,,Public,,public,,,,,,,,,,Free,,,,,,,,,,,,,,,,,,,false,
ELEC,YMCA - Frisco #61,3415 Main Street,,Frisco,TX,75034,,888-998-2546,E,,Public,24 hours daily,,,,,,3,,,Blink Network,http://www.blinkcharging.com/,GPS,33.151462,-96.860377,2024-08-30,96626,2024-08-30 00:06:58 UTC,,,,2015-10-02,,,,,J1772,US,,,,Public,,public,,,,,,,,,,Free,,,,,,,,,,,,,,,,,,,false,
ELEC,ORACLE ATX23 G1 1,2300 cloudway,Stand alone garage,Austin,TX,78741,,888-758-4389,E,,Public,24 hours daily,,,,,,2,,,ChargePoint Network,http://www.chargepoint.com/,GPS,30.241969,-97.720292,2024-08-29,96842,2024-08-29 00:55:07 UTC,,,,2018-04-28,,,,,J1772,US,,,,Public,,public,,,,,,,,,,,,,,,,,,,,,,,,,,,,,false,
ELEC,WEINSTEIN ANDERSON 1,8601 Anderson Mill Rd,,Austin,TX,78729,,888-758-4389,E,,Public,24 hours daily,,,,,,2,,,ChargePoint Network,http://www.chargepoint.com/,GPS,30.455107,-97.768221,2024-08-29,96899,2024-08-29 00:57:58 UTC,,,,2018-05-04,,,,,J1772,US,,,,Public,,public,,,,,,,,,,,,,,,,,,,,,,,,,,,,,false,
ELEC,WEINSTEIN SILVERADO 1,12930 W Parmer Ln,Inside left gate,Cedar Park,TX,78613,,888-758-4389,E,,Public,24 hours daily,,,,,,2,,,ChargePoint Network,http://www.chargepoint.com/,GPS,30.532399,-97.779871,2024-08-29,96901,2024-08-29 00:57:57 UTC,,,,2018-05-04,,,,,J1772,US,,,,Public,,public,,,,,,,,,,,,,,,,,,,,,,,,,,,,,false,
ELEC,WEINSTEIN WHITESTONE 1,13945 Research Blvd,,Austin,TX,78729,,888-758-4389,T,2024-07-27,TEMPORARILY UNAVAILABLE (Public),24 hours daily,,,,,,2,,,ChargePoint Network,http://www.chargepoint.com/,GPS,30.471863,-97.796031,2024-08-29,96902,2024-08-29 00:57:57 UTC,,,,2018-05-04,,,,,J1772,US,,,,TEMPORAIREMENT SUSPENDU (Public),,public,,,,,,,,,,,,,,,,,,,,,,,,,,,,,false,
ELEC,City of McKinney - Senior Recreation Center,1400 S College St,,McKinney,TX,75069,,972-547-7491,E,,Public,8:30am-8:30pm daily,,,,,,1,,,Non-Networked,,200-9,33.183097,-96.621074,2023-01-10,96928,2023-02-14 15:54:11 UTC,LG,,,2016-06-15,,,,,J1772,US,,,,Public,,public,,,MUNI_GOV,,,,,,,Free,,,,,,,,,,false,,,,,,,,LD,false,
ELEC,ST. ED'S GARAGE STATION1,578 Woodward St,1st floor parking garage,Austin,TX,78704,,888-758-4389,E,,Public,24 hours daily,,,,,,2,,,ChargePoint Network,http://www.chargepoint.com/,GPS,30.226907,-97.751966,2024-08-29,96978,2024-08-29 00:59:09 UTC,,,,2018-05-10,,,,,J1772,US,,,,Public,,public,,,,,,,,,,,,,,,,,,,,,,,,,,,,,false,
ELEC,ACC SGC 1,640 Main St,In Parking Lot of ACC,Leander,TX,78641,,888-758-4389,E,,Public,24 hours daily,,,,,,2,,,ChargePoint Network,http://www.chargepoint.com/,GPS,30.587748,-97.849506,2024-08-29,97048,2024-08-29 00:58:19 UTC,,,,2018-05-15,,,,,J1772,US,,,,Public,,public,,,,,,,,,,,,,,,,,,,,,,,,,,,,,false,
ELEC,EDENS MACARTHUR PARK 1,7447 N MacArthur Blvd,,Irving,TX,75063,,888-758-4389,E,,Public,24 hours daily,,,,,,2,,,ChargePoint Network,http://www.chargepoint.com/,GPS,32.908193,-96.960444,2024-08-29,98509,2024-08-29 00:57:30 UTC,,,,2018-05-24,,,,,J1772,US,,,,Public,,public,,,,,,,,,,,,,,,,,,,,,,,,,,,,,false,
ELEC,ACC HYS PSTC 2,5155 Farm to Market 1626,,Kyle,TX,78640,,888-758-4389,E,,Public,24 hours daily,,,,,,2,,,ChargePoint Network,http://www.chargepoint.com/,GPS,30.022388,-97.870799,2024-08-29,98526,2024-08-29 00:58:33 UTC,,,,2018-05-25,,,,,J1772,US,,,,Public,,public,,,,,,,,,,,,,,,,,,,,,,,,,,,,,false,
ELEC,PIE AE WEST LAKE DC4,701 S Capital of Texas Hwy,Village at West Lake behind Kerbey Lane Cafe,Austin,TX,78746,,888-758-4389,E,,Public,24 hours daily,,,,,,,1,,ChargePoint Network,http://www.chargepoint.com/,GPS,30.292583,-97.827741,2024-08-29,98528,2024-08-29 01:32:51 UTC,,,,2018-05-25,,,,,CHADEMO J1772COMBO,US,,,,Public,,public,,,,,,,,,,,,,,,,,,,,,,,,,,,,,false,
ELEC,ACC HYS PSTC 1,4650 Farm to Market 1626,,Kyle,TX,78640,,888-758-4389,T,2024-01-19,TEMPORARILY UNAVAILABLE (Public),24 hours daily,,,,,,2,,,ChargePoint Network,http://www.chargepoint.com/,GPS,30.021506,-97.87056,2024-08-29,98529,2024-08-29 00:57:57 UTC,,,,2018-05-25,,,,,J1772,US,,,,TEMPORAIREMENT SUSPENDU (Public),,public,,,,,,,,,,,,,,,,,,,,,,,,,,,,,false,
ELEC,BROOKFIELD PROP ALLEN CENTER S1,1200 Smith St 2 Allen Ctr,Level B1 Garage,Houston,TX,77002,,888-758-4389,E,,Public,24 hours daily,,,,,,2,,,ChargePoint Network,http://www.chargepoint.com/,GPS,29.757305,-95.371235,2024-08-29,98567,2024-08-29 00:58:43 UTC,,,,2018-05-26,,,,,J1772,US,,,,Public,,public,,,,,,,,,,,,,,,,,,,,,,,,,,,,,false,
ELEC,PEC HQ PEDERNALES1,4302 US-281,,Marble Falls,TX,78654,,888-758-4389,E,,Public,24 hours daily,,,,,,2,,,ChargePoint Network,http://www.chargepoint.com/,GPS,30.618434,-98.266917,2024-08-29,98769,2024-08-29 00:55:26 UTC,,,,2018-06-07,,,,,J1772,US,,,,Public,,public,,,,,,,,,,,,,,,,,,,,,,,,,,,,,false,
ELEC,Nissan of New Braunfels,2077 IH-35 N,,New Braunfels,TX,78130,,833-731-3923,E,,Public,Dealership business hours,,,,,,1,,,Non-Networked,,200-9,29.725561,-98.089401,2024-02-12,99508,2024-02-12 15:25:05 UTC,P,,,2018-06-28,,,,,J1772,US,,,,Public,,public,,,CAR_DEALER,,,,,,,Free,,,,,,,,,,false,,,,,,,,,false,
ELEC,Nissan of Alvin,3485 FM 528 Rd,,Alvin,TX,77511,,832-862-2500,E,,Public - Call ahead,Dealership business hours,,,,,,1,,,Non-Networked,,200-8,29.45335,-95.23611,2024-02-12,99510,2024-02-12 15:25:05 UTC,P,,,2018-06-28,,,,,J1772,US,,,,Public - Appeler à l'avance,,public,CALL,,CAR_DEALER,,,,,,,Free,,,,,,,,,,false,,,,,,,,LD,false,
ELEC,Cedar Park Nissan,2121 S Bell Blvd,,Cedar Park,TX,78613,,512-620-7200,E,,Public,Dealership business hours,,,,,,1,,,Non-Networked,,200-9,30.484634,-97.807088,2024-02-12,99512,2024-02-12 15:25:05 UTC,P,,,2018-06-28,,,,,J1772,US,,,,Public,,public,,,CAR_DEALER,,,,,,,Free,,,,,,,,,,false,,,,,,,,,false,
ELEC,CPSE-SATX VIAGARAGE STAT2,21935 US-281,,San Antonio,TX,78258,,888-758-4389,E,,Public,24 hours daily,,,,,,2,,,ChargePoint Network,http://www.chargepoint.com/,GPS,29.647258,-98.452392,2024-08-29,99634,2024-08-29 00:57:28 UTC,,,,2018-07-07,,,,,J1772,US,,,,Public,,public,,,,,,,,,,,,,,,,,,,,,,,,,,,,,false,
ELEC,AUSTIN HQ STATION 1,4200 Smith School Dr,In front of main building,Austin,TX,78744,,888-758-4389,E,,Public,24 hours daily,,,,,,2,,,ChargePoint Network,http://www.chargepoint.com/,GPS,30.192647,-97.714329,2024-08-29,99789,2024-08-29 00:56:55 UTC,,,,2018-07-18,,,,,J1772,US,,,,Public,,public,,,,,,,,,,,,,,,,,,,,,,,,,,,,,false,
ELEC,ConnexFW,1201 Evans Ave,Located on Evans between E Oleander and Irma St,Fort Worth,TX,76104,,817-659-1030,E,,Public,24 hours daily; must have RFID card or call Revitalize Charging Solutions when on-site at 817-659-1030 for access,,,,,,2,,,Non-Networked,,GPS,32.7314664,-97.318036,2023-01-10,100008,2023-02-14 15:54:11 UTC,P,,,2018-08-31,,,,,J1772,US,,,,Public,,public,,,OFFICE_BLDG,,,,,,,$1 per hour,,,,,,,,,,false,,,,,,,,LD,false,
ELEC,7EAST 7EAST1,2025 E 7th St,,Austin,TX,78702,,888-758-4389,E,,Public,24 hours daily,,,,,,2,,,ChargePoint Network,http://www.chargepoint.com/,GPS,30.261602,-97.719623,2024-08-29,100327,2024-08-29 01:01:09 UTC,,,,2018-08-10,,,,,J1772,US,,,,Public,,public,,,,,,,,,,,,,,,,,,,,,,,,,,,,,false,
ELEC,Holiday Inn Amarillo West Medical Center - Tesla Supercharger,8231 West Amarillo Blvd.,,Amarillo,TX,79124,,877-798-3752,E,,Public,24 hours daily. Please check Tesla's online station map to see if an adapter is required at this location.,,,,,,,8,,Tesla,https://www.tesla.com/supercharger,200-9,35.189016,-101.931467,2024-07-01,102422,2024-08-14 18:58:22 UTC,P,,,2015-12-01,,,,,TESLA,US,,,,Public,,public,,,,,,,,,,,,,,,,,,,,,,,,,,,,,false,
ELEC,City of Arlington Convention Center - Tesla Supercharger,1200 Ballpark Way,,Arlington,TX,76011,,877-798-3752,E,,Public,24 hours daily. Please check Tesla's online station map to see if an adapter is required at this location.,,,,,,,10,,Tesla,https://www.tesla.com/supercharger,200-9,32.754659,-97.082823,2024-07-01,102423,2024-08-14 18:58:22 UTC,P,,,2017-09-01,,,,,TESLA,US,,,,Public,,public,,,,,,,,,,,,,,,,,,,,,,,,,,,,,false,
ELEC,The Linc - Tesla Supercharger,6406 N. Interstate 35 Frontage Road,,Austin,TX,78752,,877-798-3752,E,,Public,24 hours daily. Please check Tesla's online station map to see if an adapter is required at this location.,,,,,,,8,,Tesla,https://www.tesla.com/supercharger,GPS,30.329275,-97.706259,2024-07-01,102424,2024-08-14 18:58:22 UTC,P,,,2018-07-23,,,,,TESLA,US,,,,Public,,public,,,,,,,,,,,,,,,,,,,,,,,,,,,,,false,
ELEC,Collin Street Bakery - Tesla Supercharger,701 N I-35,,Bellmead,TX,76705,,877-798-3752,E,,Public,24 hours daily. Please check Tesla's online station map to see if an adapter is required at this location.,,,,,,,22,,Tesla,https://www.tesla.com/supercharger,200-9,31.582287,-97.109152,2024-07-01,102425,2024-08-14 18:58:22 UTC,P,,,2018-07-23,,,,,TESLA,US,,,,Public,,public,,,,,,,,,,,,,,,,,,,,,,,,,,,,,false,
ELEC,Holiday Inn - Houston East - Tesla Supercharger,16311 East Fwy.,,Channelview,TX,77530,,877-798-3752,E,,Public,24 hours daily. Please check Tesla's online station map to see if an adapter is required at this location.,,,,,,,8,,Tesla,https://www.tesla.com/supercharger,200-8,29.784665,-95.110612,2024-07-01,102426,2024-08-14 18:58:22 UTC,P,,,2016-10-01,,,,,TESLA,US,,,,Public,,public,,,,,,,,,,,,,,,,,,,,,,,,,,,,,false,
ELEC,Pak-A-Sak Convenience Store - Tesla Supercharger,1300 Ave F NW,,Childress,TX,79201,,877-798-3752,E,,Public,24 hours daily. Please check Tesla's online station map to see if an adapter is required at this location.,,,,,,,8,,Tesla,https://www.tesla.com/supercharger,200-8,34.432426,-100.218676,2024-07-01,102427,2024-08-14 18:58:22 UTC,P,,,2016-10-01,,,,,TESLA,US,,,,Public,,public,,,,,,,,,,,,,,,,,,,,,,,,,,,,,false,
ELEC,Atrium Inn & Suites - Tesla Supercharger,2535 Texas 71,,Columbus,TX,78934,,877-798-3752,E,,Public,24 hours daily. Please check Tesla's online station map to see if an adapter is required at this location.,,,,,,,6,,Tesla,https://www.tesla.com/supercharger,200-8,29.690066,-96.537727,2024-07-01,102429,2024-08-14 18:58:22 UTC,P,,,2013-10-01,,,,,TESLA,US,,,,Public,,public,,,,,,,,,,,,,,,,,,,,,,,,,,,,,false,
ELEC,Collin Street Bakery - Tesla Supercharger,2035 Interstate 45 Frontage Road,,Corsicana,TX,75110,,877-798-3752,E,,Public,24 hours daily. Please check Tesla's online station map to see if an adapter is required at this location.,,,,,,,10,,Tesla,https://www.tesla.com/supercharger,GPS,32.068583,-96.448248,2024-07-01,102430,2024-08-14 18:58:22 UTC,P,,,2013-11-01,,,,,TESLA,US,,,,Public,,public,,,,,,,,,,,,,,,,,,,,,,,,,,,,,false,
ELEC,The Hill Shopping Center - Tesla Supercharger,9740 North Central Expressway,,Dallas,TX,75231,,877-798-3752,E,,Public,24 hours daily. Please check Tesla's online station map to see if an adapter is required at this location.,,,,,,,11,,Tesla,https://www.tesla.com/supercharger,200-8,32.881141,-96.76952,2024-07-01,102431,2024-08-14 18:58:22 UTC,P,,,2018-07-23,,,,,TESLA,US,,,,Public,,public,,,,,,,,,,,,,,,,,,,,,,,,,,,,,false,
ELEC,Rayzor Ranch Marketplace - Tesla Supercharger,2700 West University Drive,,Denton,TX,76201,,877-798-3752,E,,Public,24 hours daily. Please check Tesla's online station map to see if an adapter is required at this location.,,,,,,,6,,Tesla,https://www.tesla.com/supercharger,GPS,33.231373,-97.166412,2024-07-01,102432,2024-08-14 18:58:22 UTC,P,,,2015-10-01,,,,,TESLA,US,,,,Public,,public,,,GROCERY,,,,,,,,,,,,,,,,,,,,,,,,,,false,
ELEC,Rudy's Country Store and BBQ - Tesla Supercharger,6401 South Desert Boulevard,,El Paso,TX,79932,,877-798-3752,E,,Public,24 hours daily. Please check Tesla's online station map to see if an adapter is required at this location.,,,,,,,8,,Tesla,https://www.tesla.com/supercharger,200-9,31.8839,-106.58379,2024-07-01,102433,2024-08-14 18:58:22 UTC,P,,,2017-09-01,,,,,TESLA,US,,,,Public,,public,,,,,,,,,,,,,,,,,,,,,,,,,,,,,false,
ELEC,Amigos Country Corner and Travel Center - Tesla Supercharger,1415 FM 609,,Flatonia,TX,78941,,877-798-3752,E,,Public,24 hours daily. Please check Tesla's online station map to see if an adapter is required at this location.,,,,,,,8,,Tesla,https://www.tesla.com/supercharger,200-8,29.697904,-97.099993,2024-07-01,102434,2024-08-14 18:58:22 UTC,P,,,2017-09-01,,,,,TESLA,US,,,,Public,,public,,,,,,,,,,,,,,,,,,,,,,,,,,,,,false,
ELEC,Holiday Inn Express & Suites - Tesla Supercharger,148 Interstate 45,,Huntsville,TX,77340,,877-798-3752,E,,Public,24 hours daily. Please check Tesla's online station map to see if an adapter is required at this location.,,,,,,,6,,Tesla,https://www.tesla.com/supercharger,200-9,30.716158,-95.565944,2024-07-01,102436,2024-08-14 18:58:22 UTC,P,,,2013-11-01,,,,,TESLA,US,,,,Public,,public,,,,,,,,,,,,,,,,,,,,,,,,,,,,,false,
ELEC,Love's Travel Stop - Tesla Supercharger,1021 Dale Evans Drive,,Italy,TX,76651,,877-798-3752,E,,Public,24 hours daily. Please check Tesla's online station map to see if an adapter is required at this location.,,,,,,,10,,Tesla,https://www.tesla.com/supercharger,200-9,32.194964,-96.898765,2024-07-01,102437,2024-08-14 18:58:22 UTC,P,,,2018-07-23,,,,,TESLA,US,,,,Public,,public,,,,,,,,,,,,,,,,,,,,,,,,,,,,,false,
ELEC,Rowe Chevron - Tesla Supercharger,2415 N Main Street,,Junction,TX,76849,,877-798-3752,E,,Public,24 hours daily. Please check Tesla's online station map to see if an adapter is required at this location.,,,,,,,8,,Tesla,https://www.tesla.com/supercharger,200-9,30.509233,-99.77456,2024-07-01,102438,2024-08-14 18:58:22 UTC,P,,,2017-01-15,,,,,TESLA,US,,,,Public,,public,,,,,,,,,,,,,,,,,,,,,,,,,,,,,false,
ELEC,Embassy Suites by Hilton - Tesla Supercharger,110 Calle Del Norte Drive,,Laredo,TX,78041,,877-798-3752,E,,Public,24 hours daily. Please check Tesla's online station map to see if an adapter is required at this location.,,,,,,,8,,Tesla,https://www.tesla.com/supercharger,200-9,27.555003,-99.49424,2024-07-01,102440,2024-08-14 18:58:22 UTC,P,,,2018-07-23,,,,,TESLA,US,,,,Public,,public,,,,,,,,,,,,,,,,,,,,,,,,,,,,,false,
ELEC,Collin Street Bakery - Tesla Supercharger,17044 I-20,,Lindale,TX,75771,,877-798-3752,E,,Public,24 hours daily. Please check Tesla's online station map to see if an adapter is required at this location.,,,,,,,8,,Tesla,https://www.tesla.com/supercharger,200-9,32.470885,-95.450473,2024-07-01,102441,2024-08-14 18:58:22 UTC,P,,,2016-07-15,,,,,TESLA,US,,,,Public,,public,,,,,,,,,,,,,,,,,,,,,,,,,,,,,false,
ELEC,Embassy Suites by Hilton McAllen Convention Center - Tesla Supercharger,800 Convention Center Blvd.,,McAllen,TX,78501,,877-798-3752,E,,Public,24 hours daily. Please check Tesla's online station map to see if an adapter is required at this location.,,,,,,,8,,Tesla,https://www.tesla.com/supercharger,GPS,26.198446,-98.259821,2024-07-01,102442,2024-08-14 18:58:22 UTC,P,,,2018-07-23,,,,,TESLA,US,,,,Public,,public,,,,,,,,,,,,,,,,,,,,,,,,,,,,,false,
ELEC,Love's Travel Stop - Tesla Supercharger,3001 Antelope Trail,,Midland,TX,79706,,877-798-3752,E,,Public,24 hours daily. Please check Tesla's online station map to see if an adapter is required at this location.,,,,,,,8,,Tesla,https://www.tesla.com/supercharger,GPS,31.947414,-102.141137,2024-07-01,102443,2024-08-14 18:58:22 UTC,P,,,2017-01-15,,,,,TESLA,US,,,,Public,,public,,,,,,,,,,,,,,,,,,,,,,,,,,,,,false,
ELEC,Gateway Travel Plaza - Tesla Supercharger,2615 NW Stallings Dr,,Nacogdoches,TX,75964,,877-798-3752,E,,Public,24 hours daily. Please check Tesla's online station map to see if an adapter is required at this location.,,,,,,,8,,Tesla,https://www.tesla.com/supercharger,200-8,31.651793,-94.679625,2024-07-01,102444,2024-08-14 18:58:22 UTC,P,,,2018-07-23,,,,,TESLA,US,,,,Public,,public,,,,,,,,,,,,,,,,,,,,,,,,,,,,,false,
ELEC,Ozona Quality Inn - Tesla Supercharger,1307 Ave. A,,Ozona,TX,76943,,877-798-3752,E,,Public,24 hours daily. Please check Tesla's online station map to see if an adapter is required at this location.,,,,,,,6,,Tesla,https://www.tesla.com/supercharger,200-8,30.706656,-101.195857,2024-07-01,102445,2024-08-14 18:58:22 UTC,P,,,2017-01-15,,,,,TESLA,US,,,,Public,,public,,,,,,,,,,,,,,,,,,,,,,,,,,,,,false,
ELEC,The Shops at Legacy - Tesla Supercharger,7161 Bishop Road,,Plano,TX,75024,,877-798-3752,E,,Public,24 hours daily. Please check Tesla's online station map to see if an adapter is required at this location.,,,,,,,12,,Tesla,https://www.tesla.com/supercharger,200-9,33.078651,-96.819634,2024-07-01,102446,2024-08-14 18:58:22 UTC,P,,,2018-07-23,,,,,TESLA,US,,,,Public,,public,,,,,,,,,,,,,,,,,,,,,,,,,,,,,false,
ELEC,San Marcos Premium Outlets - Tesla Supercharger,3939 Interstate 35,,San Marcos,TX,78666,,877-798-3752,E,,Public,24 hours daily. Please check Tesla's online station map to see if an adapter is required at this location.,,,,,,,12,,Tesla,https://www.tesla.com/supercharger,GPS,29.827707,-97.979685,2024-07-01,102447,2024-08-14 18:58:22 UTC,P,,,2013-06-01,,,,,TESLA,US,,,,Public,,public,,,,,,,,,,,,,,,,,,,,,,,,,,,,,false,
ELEC,U-Drop Inn - Tesla Supercharger,107 East 12th Street,,Shamrock,TX,79079,,877-798-3752,E,,Public,24 hours daily. Please check Tesla's online station map to see if an adapter is required at this location.,,,,,,,6,,Tesla,https://www.tesla.com/supercharger,200-8,35.226765,-100.24836,2024-07-01,102448,2024-08-14 18:58:22 UTC,P,,,2015-03-01,,,,,TESLA,US,,,,Public,,public,,,,,,,,,,,,,,,,,,,,,,,,,,,,,false,
ELEC,Southlake Town Square - Tesla Supercharger,261 North Carroll Avenue,,Southlake,TX,76092,,877-798-3752,E,,Public,24 hours daily. Please check Tesla's online station map to see if an adapter is required at this location.,,,,,,,10,,Tesla,https://www.tesla.com/supercharger,200-8,32.943473,-97.133848,2024-07-01,102449,2024-08-14 18:58:22 UTC,P,,,2018-07-23,,,,,TESLA,US,,,,Public,,public,,,,,,,,,,,,,,,,,,,,,,,,,,,,,false,
ELEC,City of Sulphur Springs Police Department - Tesla Supercharger,300 W Tomlinson Street,,Sulphur Springs,TX,75482,,877-798-3752,E,,Public,24 hours daily. Please check Tesla's online station map to see if an adapter is required at this location.,,,,,,,8,,Tesla,https://www.tesla.com/supercharger,200-8,33.137098,-95.603229,2024-07-01,102450,2024-08-14 18:58:22 UTC,P,,,2016-07-15,,,,,TESLA,US,,,,Public,,public,,,,,,,,,,,,,,,,,,,,,,,,,,,,,false,
ELEC,Holiday Inn Express & Suites Sweetwater - Tesla Supercharger,300 SE Georgia Ave.,,Sweetwater,TX,79556,,877-798-3752,E,,Public,24 hours daily. Please check Tesla's online station map to see if an adapter is required at this location.,,,,,,,8,,Tesla,https://www.tesla.com/supercharger,200-9,32.450591,-100.392455,2024-07-01,102451,2024-08-14 18:58:22 UTC,P,,,2016-09-01,,,,,TESLA,US,,,,Public,,public,,,,,,,,,,,,,,,,,,,,,,,,,,,,,false,
ELEC,Olive Garden - Tesla Supercharger,3101 Mall Drive,,Texarkana,TX,75503,,877-798-3752,E,,Public,24 hours daily. Please check Tesla's online station map to see if an adapter is required at this location.,,,,,,,8,,Tesla,https://www.tesla.com/supercharger,200-9,33.459926,-94.077179,2024-07-01,102452,2024-08-14 18:58:22 UTC,P,,,2017-01-15,,,,,TESLA,US,,,,Public,,public,,,,,,,,,,,,,,,,,,,,,,,,,,,,,false,
ELEC,Love's Travel Center - Tesla Supercharger,2645 S. Hwy 37,,Three Rivers,TX,78071,,877-798-3752,E,,Public,24 hours daily. Please check Tesla's online station map to see if an adapter is required at this location.,,,,,,,8,,Tesla,https://www.tesla.com/supercharger,GPS,28.521614,-98.185829,2024-07-01,102453,2024-08-14 18:58:22 UTC,P,,,2016-10-01,,,,,TESLA,US,,,,Public,,public,,,,,,,,,,,,,,,,,,,,,,,,,,,,,false,
ELEC,La Quinta Inn and Suites - Tesla Supercharger,3107 S Laurent St.,,Victoria,TX,77901,,877-798-3752,E,,Public,24 hours daily. Please check Tesla's online station map to see if an adapter is required at this location.,,,,,,,6,,Tesla,https://www.tesla.com/supercharger,200-9,28.766853,-96.978988,2024-07-01,102455,2024-08-14 18:58:22 UTC,P,,,2016-01-01,,,,,TESLA,US,,,,Public,,public,,,,,,,,,,,,,,,,,,,,,,,,,,,,,false,
ELEC,UCS BURLESON UNITED GRANBURY,320 Fall Creek Highway,Next to the drive thru entrance,Granbury,TX,76049,,888-758-4389,E,,Public,24 hours daily,,,,,,2,,,ChargePoint Network,http://www.chargepoint.com/,GPS,32.469933,-97.697174,2024-08-29,102659,2024-08-29 01:01:16 UTC,,,,2018-09-07,,,,,J1772,US,,,,Public,,public,,,,,,,,,,,,,,,,,,,,,,,,,,,,,false,
ELEC,AMERICANAIRLINE GARAGE 1 - #03,13752 Airport Freeway Garage 1,"Garage 1, Level 1, Station 3.",Fort Worth,TX,76155,,888-758-4389,E,,Public,24 hours daily,,,,,,2,,,ChargePoint Network,http://www.chargepoint.com/,GPS,32.834244,-97.068145,2024-08-29,102721,2024-08-29 01:00:12 UTC,,,,2018-09-13,,,,,J1772,US,,,,Public,,public,,,,,,,,,,,,,,,,,,,,,,,,,,,,,false,
ELEC,Alamo Area Council of Governments,8700 Tesoro Dr,Suite 160,San Antonio,TX,78217,,210-362-5200,E,,Public,24 hours daily,,,,,,2,,,Non-Networked,,GPS,29.518993,-98.454053,2022-06-14,102951,2023-02-14 15:54:11 UTC,LG,,,2018-08-30,,,,,J1772,US,,,,Public,,public,,,MUNI_GOV,,,,,,,Free,,,,,,,,,,false,,,,,,,,LD,false,
ELEC,PIE AE PUBDITTMAR1,1009 W Dittmar Rd,,Austin,TX,78745,,888-758-4389,E,,Public,24 hours daily,,,,,,2,,,ChargePoint Network,http://www.chargepoint.com/,GPS,30.185298,-97.801157,2024-08-29,103872,2024-08-29 01:01:56 UTC,,,,2018-10-05,,,,,J1772,US,,,,Public,,public,,,,,,,,,,,,,,,,,,,,,,,,,,,,,false,
ELEC,PIE AE CONVENTION CTR3,201 E 2nd St,2nd floor in parking garage-northwest corner of the garage,Austin,TX,78701,,888-758-4389,E,,Public,24 hours daily,,,,,,2,,,ChargePoint Network,http://www.chargepoint.com/,GPS,30.26351,-97.742302,2024-08-29,103874,2024-08-29 01:01:52 UTC,,,,2018-10-05,,,,,J1772,US,,,,Public,,public,,,,,,,,,,,,,,,,,,,,,,,,,,,,,false,
ELEC,PIE AE CONVENTION CTR1,201 E 2nd St,2nd floor garage-northwest corner of the garage,Austin,TX,78701,,888-758-4389,E,,Public,24 hours daily,,,,,,2,,,ChargePoint Network,http://www.chargepoint.com/,GPS,30.263529,-97.742431,2024-08-29,103875,2024-08-29 01:01:51 UTC,,,,2018-10-05,,,,,J1772,US,,,,Public,,public,,,,,,,,,,,,,,,,,,,,,,,,,,,,,false,
ELEC,PIE AE NWRECCENTER 1,2913 Marilyn Dr,,Austin,TX,78757,,888-758-4389,E,,Public,24 hours daily,,,,,,2,,,ChargePoint Network,http://www.chargepoint.com/,GPS,30.33403,-97.751448,2024-08-29,103877,2024-08-29 01:01:50 UTC,,,,2018-10-05,,,,,J1772,US,,,,Public,,public,,,,,,,,,,,,,,,,,,,,,,,,,,,,,false,
ELEC,PIE AE NWRECCENTER 4,2913 Northland Dr,,Austin,TX,78757,,888-758-4389,E,,Public,24 hours daily,,,,,,2,,,ChargePoint Network,http://www.chargepoint.com/,GPS,30.333969,-97.751358,2024-08-29,103879,2024-08-29 01:01:44 UTC,,,,2018-10-05,,,,,J1772,US,,,,Public,,public,,,,,,,,,,,,,,,,,,,,,,,,,,,,,false,
ELEC,PIE AE PUB M STATION 1,2906 E Martin Luther King Jr Blvd,,Austin,TX,78702,,888-758-4389,E,,Public,24 hours daily,,,,,,2,,,ChargePoint Network,http://www.chargepoint.com/,GPS,30.283043,-97.707983,2024-08-29,103880,2024-08-29 01:01:40 UTC,,,,2018-10-05,,,,,J1772,US,,,,Public,,public,,,,,,,,,,,,,,,,,,,,,,,,,,,,,false,
ELEC,PIE AE ROSEWOOD PARK1,1182 N Pleasant Valley Rd Rosewood Neighborho,,Austin,TX,78702,,888-758-4389,E,,Public,24 hours daily,,,,,,2,,,ChargePoint Network,http://www.chargepoint.com/,GPS,30.271704,-97.713959,2024-08-29,103881,2024-08-29 01:01:39 UTC,,,,2018-10-05,,,,,J1772,US,,,,Public,,public,,,,,,,,,,,,,,,,,,,,,,,,,,,,,false,
ELEC,PIE AE ANIMAL SERVICE5,7201 Levander Loop,Handicap parking availible,Austin,TX,78702,,888-758-4389,E,,Public,24 hours daily,,,,,,2,,,ChargePoint Network,http://www.chargepoint.com/,GPS,30.251587,-97.690788,2024-08-29,103882,2024-08-29 01:01:28 UTC,,,,2018-10-05,,,,,J1772,US,,,,Public,,public,,,,,,,,,,,,,,,,,,,,,,,,,,,,,false,
ELEC,PIE AE ANIMAL SERVICE3,7201 Levander Loop,,Austin,TX,78721,,888-758-4389,E,,Public,24 hours daily,,,,,,2,,,ChargePoint Network,http://www.chargepoint.com/,GPS,30.251538,-97.690807,2024-08-29,103883,2024-08-29 01:01:26 UTC,,,,2018-10-05,,,,,J1772,US,,,,Public,,public,,,,,,,,,,,,,,,,,,,,,,,,,,,,,false,
ELEC,BROOKFIELD PROP 1225 LOUISIANA,1225 Louisiana St,,Houston,TX,77002,,888-758-4389,E,,Public,24 hours daily,,,,,,2,,,ChargePoint Network,http://www.chargepoint.com/,GPS,29.756191,-95.368786,2024-08-29,103913,2024-08-29 01:01:58 UTC,,,,2018-10-06,,,,,J1772,US,,,,Public,,public,,,,,,,,,,,,,,,,,,,,,,,,,,,,,false,
ELEC,HONDA KATY FRONT,21001 Katy Fwy,Main front entrance,Katy,TX,77450,,888-758-4389,E,,Public,24 hours daily,,,,,,2,,,ChargePoint Network,http://www.chargepoint.com/,GPS,29.783781,-95.74414,2024-08-29,103931,2024-08-29 01:01:59 UTC,,,,2018-10-09,,,,,J1772,US,,,,Public,,public,,,,,,,,,,,,,,,,,,,,,,,,,,,,,false,
ELEC,4THANDCHARGE STATION1,1806 E 4th St,,Austin,TX,78702,,888-758-4389,E,,Public,24 hours daily,,,,,,2,,,ChargePoint Network,http://www.chargepoint.com/,GPS,30.260355,-97.723548,2024-08-29,104174,2024-08-29 00:56:11 UTC,,,,2018-10-16,,,,,J1772,US,,,,Public,,public,,,,,,,,,,,,,,,,,,,,,,,,,,,,,false,
ELEC,4THANDCHARGE STATION 5,1800 E 4th St,located on 3rd floor,Austin,TX,78702,,888-758-4389,E,,Public,24 hours daily,,,,,,2,,,ChargePoint Network,http://www.chargepoint.com/,GPS,30.260389,-97.724234,2024-08-29,104175,2024-08-29 00:56:21 UTC,,,,2018-10-16,,,,,J1772,US,,,,Public,,public,,,,,,,,,,,,,,,,,,,,,,,,,,,,,false,
ELEC,PARK PLAZA STATION2,115 Sandra muraida way,Location on 3rd floor,Austin,TX,78703,,888-758-4389,E,,Public,24 hours daily,,,,,,2,,,ChargePoint Network,http://www.chargepoint.com/,GPS,30.267321,-97.754548,2024-08-29,104346,2024-08-29 01:01:27 UTC,,,,2018-10-24,,,,,J1772,US,,,,Public,,public,,,,,,,,,,,,,,,,,,,,,,,,,,,,,false,
ELEC,PIE AE HOWSONBRCHLIBR1,2500 Exposition Blvd,,Austin,TX,78703,,888-758-4389,E,,Public,24 hours daily,,,,,,2,,,ChargePoint Network,http://www.chargepoint.com/,GPS,30.298412,-97.767959,2024-08-29,104461,2024-08-29 01:01:39 UTC,,,,2018-11-01,,,,,J1772,US,,,,Public,,public,,,,,,,,,,,,,,,,,,,,,,,,,,,,,false,
ELEC,CITADEL AT WEST WESTPOINTE ST1,438 Richland Hills Dr,,San Antonio,TX,78245,,888-758-4389,E,,Public,24 hours daily,,,,,,2,,,ChargePoint Network,http://www.chargepoint.com/,GPS,29.442297,-98.649844,2024-08-29,104505,2024-08-29 01:02:32 UTC,,,,2018-11-03,,,,,J1772,US,,,,Public,,public,,,,,,,,,,,,,,,,,,,,,,,,,,,,,false,
ELEC,CYPRESS WATERS2 CYPRESS WATERS2,9111 Cypress Waters Blvd,lot parking south side of garage,Irving,TX,75063,,888-758-4389,T,2023-08-29,TEMPORARILY UNAVAILABLE (Public),24 hours daily,,,,,,2,,,ChargePoint Network,http://www.chargepoint.com/,GPS,32.93166,-96.988391,2024-08-29,104692,2024-08-29 01:02:03 UTC,,,,2018-11-14,,,,,J1772,US,,,,TEMPORAIREMENT SUSPENDU (Public),,public,,,,,,,,,,,,,,,,,,,,,,,,,,,,,false,
ELEC,CORT GALLERIA STATION1,5005 Galleria Rd,,Dallas,TX,75240,,888-758-4389,E,,Public,24 hours daily,,,,,,2,,,ChargePoint Network,http://www.chargepoint.com/,GPS,32.930033,-96.823441,2024-08-29,104837,2024-08-29 01:02:53 UTC,,,,2018-11-21,,,,,J1772,US,,,,Public,,public,,,,,,,,,,,,,,,,,,,,,,,,,,,,,false,
ELEC,CITY VIEW STATION2,1120 S Capital of Texas Hwy,,Austin,TX,78746,,888-758-4389,E,,Public,24 hours daily,,,,,,2,,,ChargePoint Network,http://www.chargepoint.com/,GPS,30.283044,-97.824902,2024-08-29,104959,2024-08-29 01:02:41 UTC,,,,2018-11-28,,,,,J1772,US,,,,Public,,public,,,,,,,,,,,,,,,,,,,,,,,,,,,,,false,
ELEC,HCM HONDA MCKINNEY,601 S Central Expy,Honda Cars of McKinney - Near Main Front Entrance,McKinney,TX,75070,,888-758-4389,T,2023-11-26,TEMPORARILY UNAVAILABLE (Public),24 hours daily,,,,,,2,,,ChargePoint Network,http://www.chargepoint.com/,GPS,33.192521,-96.637849,2024-08-29,104962,2024-08-29 01:03:24 UTC,,,,2018-11-28,,,,,J1772,US,,,,TEMPORAIREMENT SUSPENDU (Public),,public,,,,,,,,,,,,,,,,,,,,,,,,,,,,,false,
ELEC,JLR EL PASO SHOP 02,1148 Airway Blvd,Shop wall,El Paso,TX,79925,,888-758-4389,E,,Public,24 hours daily,,,,,,1,,,ChargePoint Network,http://www.chargepoint.com/,GPS,31.782879,-106.392592,2024-08-29,105026,2024-08-29 01:02:13 UTC,,,,2018-11-30,,,,,J1772,US,,,,Public,,public,,,,,,,,,,,,,,,,,,,,,,,,,,,,,false,
ELEC,LATITUDE MED FLOOR 2 CHARGER,3100 Old Main St,Parking spot 230 & 231,Houston,TX,77030,,888-758-4389,E,,Public,24 hours daily,,,,,,2,,,ChargePoint Network,http://www.chargepoint.com/,GPS,29.70785,-95.405162,2024-08-29,105053,2024-08-29 01:03:30 UTC,,,,2018-12-01,,,,,J1772,US,,,,Public,,public,,,,,,,,,,,,,,,,,,,,,,,,,,,,,false,
ELEC,LATITUDE MED FLOOR 3 CHARGER,1850 Old Main St,Parking spot 304 & 306,Houston,TX,77030,,888-758-4389,E,,Public,24 hours daily,,,,,,2,,,ChargePoint Network,http://www.chargepoint.com/,GPS,29.707552,-95.404386,2024-08-29,105054,2024-08-29 01:03:29 UTC,,,,2018-12-01,,,,,J1772,US,,,,Public,,public,,,,,,,,,,,,,,,,,,,,,,,,,,,,,false,
ELEC,LATITUDE MED FLOOR 5 CHARGER,1820 Old Main St,Parking spot 504 & 506,Houston,TX,77030,,888-758-4389,E,,Public,24 hours daily,,,,,,2,,,ChargePoint Network,http://www.chargepoint.com/,GPS,29.708035,-95.404831,2024-08-29,105055,2024-08-29 01:03:29 UTC,,,,2018-12-01,,,,,J1772,US,,,,Public,,public,,,,,,,,,,,,,,,,,,,,,,,,,,,,,false,
ELEC,NATIONAL INSTRU 23&24;,11500B N Mopac Expy,,Austin,TX,78759,,888-758-4389,E,,Public,24 hours daily,,,,,,2,,,ChargePoint Network,http://www.chargepoint.com/,GPS,30.407286,-97.727058,2024-08-29,105211,2024-08-29 01:00:57 UTC,,,,2018-12-12,,,,,J1772,US,,,,Public,,public,,,,,,,,,,,,,,,,,,,,,,,,,,,,,false,
ELEC,HONDA SHOP 02,1601 Dallas Pkwy,In PDI area,Frisco,TX,75034,,888-758-4389,T,2022-10-11,TEMPORARILY UNAVAILABLE (Public),24 hours daily,,,,,,1,,,ChargePoint Network,http://www.chargepoint.com/,GPS,33.092753,-96.824797,2024-08-29,105274,2024-08-29 01:03:38 UTC,,,,2018-12-13,,,,,J1772,US,,,,TEMPORAIREMENT SUSPENDU (Public),,public,,,,,,,,,,,,,,,,,,,,,,,,,,,,,false,
ELEC,JLR SAN JUAN TX STATION 01,601 E Expressway 83,Near front main entrance.,San Juan,TX,78589,,888-758-4389,E,,Public,24 hours daily,,,,,,1,,,ChargePoint Network,http://www.chargepoint.com/,GPS,26.19376,-98.145359,2024-08-29,105307,2024-08-29 01:03:04 UTC,,,,2018-12-14,,,,,J1772,US,,,,Public,,public,,,,,,,,,,,,,,,,,,,,,,,,,,,,,false,
ELEC,WATERWALL PLACE STATION1,2801 Waterwall Dr,,Houston,TX,77056,,888-758-4389,E,,Public,24 hours daily,,,,,,2,,,ChargePoint Network,http://www.chargepoint.com/,GPS,29.73619,-95.462441,2024-08-29,105348,2024-08-29 00:59:09 UTC,,,,2018-12-18,,,,,J1772,US,,,,Public,,public,,,,,,,,,,,,,,,,,,,,,,,,,,,,,false,
ELEC,PALO VERDE APTS STATION2,7880 US-290,,Austin,TX,78736,,888-758-4389,T,2024-08-10,TEMPORARILY UNAVAILABLE (Public),24 hours daily,,,,,,2,,,ChargePoint Network,http://www.chargepoint.com/,GPS,30.230035,-97.88718,2024-08-29,105421,2024-08-29 01:03:55 UTC,,,,2018-12-20,,,,,J1772,US,,,,TEMPORAIREMENT SUSPENDU (Public),,public,,,,,,,,,,,,,,,,,,,,,,,,,,,,,false,
ELEC,PALO VERDE APTS STATION1,7814 US-290,,Austin,TX,78736,,888-758-4389,E,,Public,24 hours daily,,,,,,2,,,ChargePoint Network,http://www.chargepoint.com/,GPS,30.23125,-97.887922,2024-08-29,105426,2024-08-29 01:03:43 UTC,,,,2018-12-20,,,,,J1772,US,,,,Public,,public,,,,,,,,,,,,,,,,,,,,,,,,,,,,,false,
ELEC,JEH CHARGEPOINT SHOP02,6007 Peeler St,In Honda PDI,Dallas,TX,75235,,888-758-4389,T,2022-09-09,TEMPORARILY UNAVAILABLE (Public),24 hours daily,,,,,,1,,,ChargePoint Network,http://www.chargepoint.com/,GPS,32.82968,-96.831671,2024-08-29,105447,2024-08-29 01:03:20 UTC,,,,2018-12-21,,,,,J1772,US,,,,TEMPORAIREMENT SUSPENDU (Public),,public,,,,,,,,,,,,,,,,,,,,,,,,,,,,,false,
ELEC,JEH CHARGEPOINT SHOP01,109 Cedar Plaza Ln,In service department,Dallas,TX,75235,,888-758-4389,E,,Public,24 hours daily,,,,,,1,,,ChargePoint Network,http://www.chargepoint.com/,GPS,32.825071,-96.822888,2024-08-29,105448,2024-08-29 01:03:06 UTC,,,,2018-12-21,,,,,J1772,US,,,,Public,,public,,,,,,,,,,,,,,,,,,,,,,,,,,,,,false,
ELEC,Hilton Garden Inn - Tesla Destination,4449 Ridgemont Dr,,Abilene,TX,79606,,325-690-6432  877-798-3752,E,,Public,,,,,,,1,,,Tesla Destination,https://www.tesla.com/destination-charging,200-8,32.39623,-99.764642,2022-10-06,115623,2023-01-18 15:15:20 UTC,P,,,2015-10-22,,,,,TESLA,US,,,,Public,,public,,,HOTEL,,,,,,,Free,,,,,,,,,,,,,,,,,,,false,
ELEC,La Quinta Inn and Suites Allen at The Village - Tesla Destination,1220 N Central Expy,,Allen,TX,75013,,214-667-6772  877-798-3752,E,,Public,,,,,,,2,,,Tesla Destination,https://www.tesla.com/destination-charging,200-9,33.11674,-96.667297,2022-10-06,115625,2023-01-18 15:15:20 UTC,P,,,2016-09-12,,,,,J1772 TESLA,US,,,,Public,,public,,,HOTEL,,,,,,,Free,,,,,,,,,,,,,,,,,,,false,
ELEC,Hyatt Place Dallas/Allen - Tesla Destination,333 Central Expressway N,,Allen,TX,75013,,972-747-5151  877-798-3752,E,,Public,,,,,,,2,,,Tesla Destination,https://www.tesla.com/destination-charging,200-9,33.107313,-96.676484,2022-10-06,115626,2023-01-18 15:15:20 UTC,P,,,2017-10-27,,,,,J1772 TESLA,US,,,,Public,,public,,,HOTEL,,,,,,,Free,,,,,,,,,,,,,,,,,,,false,
ELEC,Hampton Inn & Suites Amarillo East - Tesla Destination,7777 I - 40 E,,Amarillo,TX,79118,,844-325-6077  877-798-3752,E,,Public,,,,,,,2,,,Tesla Destination,https://www.tesla.com/destination-charging,200-9,35.193396,-101.752268,2022-10-06,115627,2023-01-18 15:15:20 UTC,P,,,2017-06-15,,,,,TESLA,US,,,,Public,,public,,,HOTEL,,,,,,,Free,,,,,,,,,,,,,,,,,,,false,
ELEC,Home2 Suites by Hilton Amarillo - Tesla Destination,8251 W Amarillo Blvd,,Amarillo,TX,79124,,806-803-7777  877-798-3752,E,,Public,,,,,,,2,,,Tesla Destination,https://www.tesla.com/destination-charging,200-9,35.190964,-101.931012,2022-10-06,115628,2023-01-18 15:15:20 UTC,P,,,2016-09-21,,,,,TESLA,US,,,,Public,,public,,,HOTEL,,,,,,,Free,,,,,,,,,,,,,,,,,,,false,
ELEC,Holiday Inn Express and Suites Amarillo West - Tesla Destination,8330 W Amarillo Blvd,,Amarillo,TX,79124,,806-418-2505  877-798-3752,E,,Public,,,,,,,4,,,Tesla Destination,https://www.tesla.com/destination-charging,200-9,35.192673,-101.932979,2022-10-06,115629,2023-01-18 15:15:20 UTC,P,,,2015-04-03,,,,,J1772 TESLA,US,,,,Public,,public,,,HOTEL,,,,,,,Free,,,,,,,,,,,,,,,,,,,false,
ELEC,Microtel Inn and Suites Aransas Pass - Tesla Destination,355 E Goodnight Ave,,Aransas Pass,TX,78336,,361-758-8000  877-798-3752,E,,Public,,,,,,,3,,,Tesla Destination,https://www.tesla.com/destination-charging,200-8,27.900089,-97.143324,2022-10-06,115630,2023-01-18 15:15:20 UTC,P,,,2017-04-03,,,,,J1772 TESLA,US,,,,Public,,public,,,HOTEL,,,,,,,Free,,,,,,,,,,,,,,,,,,,false,
ELEC,Lone Star Court - Tesla Destination,10901 Domain Dr,,Austin,TX,78758,,512-814-2625  877-798-3752,E,,Public,,,,,,,3,,,Tesla Destination,https://www.tesla.com/destination-charging,200-9,30.395197,-97.726426,2022-10-06,115631,2023-01-18 15:15:20 UTC,P,,,2015-04-07,,,,,J1772 TESLA,US,,,,Public,,public,,,HOTEL,,,,,,,Free,,,,,,,,,,,,,,,,,,,false,
ELEC,Kimber Modern - Tesla Destination,110 The Circle,,Austin,TX,78704,,512-912-1046  877-798-3752,E,,Public,,,,,,,1,,,Tesla Destination,https://www.tesla.com/destination-charging,200-9,30.250091,-97.74843,2022-10-06,115632,2023-01-18 15:15:20 UTC,P,,,2016-08-31,,,,,TESLA,US,,,,Public,,public,,,HOTEL,,,,,,,Free,,,,,,,,,,,,,,,,,,,false,
ELEC,Homewood Suites Austin/ Tech Ridge - Tesla Destination,13001 Center Lake Dr,,Austin,TX,78753,,512-989-1100  877-798-3752,E,,Public,,,,,,,2,,,Tesla Destination,https://www.tesla.com/destination-charging,200-9,30.408205,-97.666596,2022-10-06,115635,2023-01-18 15:15:20 UTC,P,,,2015-12-03,,,,,TESLA,US,,,,Public,,public,,,HOTEL,,,,,,,Free,,,,,,,,,,,,,,,,,,,false,
ELEC,Fairfield Inn & Suites by Marriott Austin - Tesla Destination,13087 N Research Blvd,,Austin,TX,78750,,512-258-4100  877-798-3752,E,,Public,,,,,,,3,,,Tesla Destination,https://www.tesla.com/destination-charging,200-9,30.440841,-97.779967,2022-10-06,115636,2023-01-18 15:15:20 UTC,P,,,2017-03-17,,,,,J1772 TESLA,US,,,,Public,,public,,,HOTEL,,,,,,,Free,,,,,,,,,,,,,,,,,,,false,
ELEC,Hotel San Jose - Tesla Destination,1316 S Congress Ave,,Austin,TX,78704,,512-852-2350  877-798-3752,E,,Public,,,,,,,2,,,Tesla Destination,https://www.tesla.com/destination-charging,200-9,30.250541,-97.749422,2022-10-06,115637,2023-01-18 15:15:20 UTC,P,,,2017-02-23,,,,,J1772 TESLA,US,,,,Public,,public,,,HOTEL,,,,,,,Free,,,,,,,,,,,,,,,,,,,false,
ELEC,Travaasa Austin Resort & Spa - Tesla Destination,13500 Farm to Market Rd 2769,,Austin,TX,78726,,512-258-7243  877-798-3752,E,,Public,,,,,,,2,,,Tesla Destination,https://www.tesla.com/destination-charging,200-9,30.44599,-97.868845,2022-10-06,115638,2023-01-18 15:15:20 UTC,P,,,2015-03-05,,,,,J1772 TESLA,US,,,,Public,,public,,,HOTEL,,,,,,,Free,,,,,,,,,,,,,,,,,,,false,
ELEC,Lake Austin Spa Resort - Tesla Destination,1705 S Quinlan Park Rd,,Austin,TX,78732,,512-372-7300  877-798-3752,E,,Public,,,,,,,3,,,Tesla Destination,https://www.tesla.com/destination-charging,200-9,30.3272668,-97.9254155,2022-10-06,115639,2023-01-18 15:15:20 UTC,P,,,2014-12-11,,,,,J1772 TESLA,US,,,,Public,,public,,,HOTEL,,,,,,,Free,,,,,,,,,,,,,,,,,,,false,
ELEC,Hotel Ella - Tesla Destination,1900 Rio Grande St,,Austin,TX,78705,,512-495-1800  877-798-3752,E,,Public,,,,,,,2,,,Tesla Destination,https://www.tesla.com/destination-charging,200-9,30.283018,-97.745736,2022-10-06,115641,2023-01-18 15:15:20 UTC,P,,,2014-11-18,,,,,TESLA,US,,,,Public,,public,,,HOTEL,,,,,,,Free,,,,,,,,,,,,,,,,,,,false,
ELEC,W Austin Hotel & Residences - Tesla Destination,200 Lavaca St,,Austin,TX,78701,,512-542-3600  877-798-3752,E,,Public,,,,,,,6,,,Tesla Destination,https://www.tesla.com/destination-charging,200-9,30.265397,-97.746566,2022-10-06,115642,2023-01-18 15:15:20 UTC,P,,,2015-01-23,,,,,TESLA,US,,,,Public,,public,,,HOTEL,,,,,,,Free,,,,,,,,,,,,,,,,,,,false,
ELEC,Hyatt Regency Austin - Tesla Destination,208 Barton Springs Rd,,Austin,TX,78704,,512-477-1234  877-798-3752,E,,Public,,,,,,,3,,,Tesla Destination,https://www.tesla.com/destination-charging,200-8,30.259012,-97.747352,2022-10-06,115643,2023-01-18 15:15:20 UTC,P,,,2014-06-25,,,,,TESLA,US,,,,Public,,public,,,HOTEL,,,,,,,Free,,,,,,,,,,,,,,,,,,,false,
ELEC,Home2 Suites by Hilton Austin North - Tesla Destination,2800 Esperanza Crossing,,Austin,TX,78758,,512-339-2400  877-798-3752,E,,Public,,,,,,,5,,,Tesla Destination,https://www.tesla.com/destination-charging,200-9,30.398309,-97.719381,2022-10-06,115644,2023-01-18 15:15:20 UTC,P,,,2016-05-02,,,,,J1772 TESLA,US,,,,Public,,public,,,HOTEL,,,,,,,Free,,,,,,,,,,,,,,,,,,,false,
ELEC,Austin Terrier - Tesla Destination,3435 Greystone Dr,,Austin,TX,78731,,512-369-3751  877-798-3752,E,,Public,,,,,,,3,,,Tesla Destination,https://www.tesla.com/destination-charging,200-9,30.357106,-97.74863,2022-10-06,115645,2023-01-18 15:15:20 UTC,P,,,2016-11-28,,,,,J1772 TESLA,US,,,,Public,,public,,,RESTAURANT,,,,,,,Free,,,,,,,,,,,,,,,,,,,false,
ELEC,827 Rays - Tesla Destination,3519 Ranch Rd 620 N,,Austin,TX,78734,,512-266-9445  877-798-3752,E,,Public,,,,,,,3,,,Tesla Destination,https://www.tesla.com/destination-charging,200-9,30.396418,-97.931356,2022-10-06,115646,2023-01-18 15:15:20 UTC,P,,,2017-04-18,,,,,TESLA,US,,,,Public,,public,,,RESTAURANT,,,,,,,Free,,,,,,,,,,,,,,,,,,,false,
ELEC,Atlantic Aviation - Austin - Tesla Destination,4309 Emma Browning Ave,,Austin,TX,78719,,512-382-8810  877-798-3752,E,,Public,,,,,,,3,,,Tesla Destination,https://www.tesla.com/destination-charging,200-9,30.188007,-97.663024,2022-10-06,115647,2023-01-18 15:15:20 UTC,P,,,2016-05-02,,,,,J1772 TESLA,US,,,,Public,,public,,,AIRPORT,,,,,,,Free,,,,,,,,,,,,,,,,,,,false,
ELEC,TownePlace Suites Austin Round Rock - Tesla Destination,541 Parker Dr,,Austin,TX,78728,,512-255-0600  877-798-3752,E,,Public,,,,,,,3,,,Tesla Destination,https://www.tesla.com/destination-charging,200-9,30.477825,-97.680383,2022-10-06,115648,2023-01-18 15:15:20 UTC,P,,,2018-05-10,,,,,TESLA,US,,,,Public,,public,,,HOTEL,,,,,,,Free,,,,,,,,,,,,,,,,,,,false,
ELEC,Kimpton Hotel Van Zandt - Tesla Destination,605 Davis St,,Austin,TX,78701,,512-542-5300  877-798-3752,E,,Public,,,,,,,2,,,Tesla Destination,https://www.tesla.com/destination-charging,200-9,30.259977,-97.739149,2022-10-06,115649,2023-01-18 15:15:20 UTC,P,,,2017-04-04,,,,,TESLA,US,,,,Public,,public,,,HOTEL,,,,,,,Free,,,,,,,,,,,,,,,,,,,false,
ELEC,InterContinental Stephen F Austin Hotel - Tesla Destination,701 Congress Ave,,Austin,TX,78701,,512-457-8800  877-798-3752,E,,Public,,,,,,,4,,,Tesla Destination,https://www.tesla.com/destination-charging,200-9,30.269491,-97.742266,2022-10-06,115650,2023-01-18 15:15:20 UTC,P,,,2015-08-31,,,,,J1772 TESLA,US,,,,Public,,public,,,HOTEL,,,,,,,Free,,,,,,,,,,,,,,,,,,,false,
ELEC,Rudy's Country Store and BBQ Austin - Tesla Destination,7709 Ranch Rd 620,,Austin,TX,78732,,512-250-8002  877-798-3752,E,,Public,,,,,,,3,,,Tesla Destination,https://www.tesla.com/destination-charging,GPS,30.410666,-97.849318,2022-10-06,115651,2023-01-18 15:15:20 UTC,P,,,2016-02-16,,,,,J1772 TESLA,US,,,,Public,,public,,,RESTAURANT,,,,,,,Free,,,,,,,,,,,,,,,,,,,false,
ELEC,Omni Barton Creek Resort - Tesla Destination,8212 Barton Club Dr,,Austin,TX,78735,,512-329-4000  877-798-3752,E,,Public,,,,,,,3,,,Tesla Destination,https://www.tesla.com/destination-charging,200-9,30.291085,-97.858717,2022-10-06,115652,2023-01-18 15:15:20 UTC,P,,,2016-04-07,,,,,J1772 TESLA,US,,,,Public,,public,,,HOTEL,,,,,,,Free,,,,,,,,,,,,,,,,,,,false,
ELEC,Renaissance Austin Hotel - Tesla Destination,9721 Arboretum Blvd,,Austin,TX,78759,,512-343-2626  877-798-3752,E,,Public,,,,,,,5,,,Tesla Destination,https://www.tesla.com/destination-charging,200-9,30.392202,-97.750038,2022-10-06,115655,2023-01-18 15:15:20 UTC,P,,,2018-05-07,,,,,J1772 TESLA,US,,,,Public,,public,,,HOTEL,,,,,,,Free,,,,,,,,,,,,,,,,,,,false,
ELEC,Four Seasons Hotel Austin - Tesla Destination,98 San Jacinto Blvd,,Austin,TX,78701,,512-475-4500  877-798-3752,E,,Public,,,,,,,3,,,Tesla Destination,https://www.tesla.com/destination-charging,200-9,30.26197,-97.742421,2022-10-06,115656,2023-01-18 15:15:20 UTC,P,,,2015-11-03,,,,,J1772 TESLA,US,,,,Public,,public,,,HOTEL,,,,,,,Free,,,,,,,,,,,,,,,,,,,false,
ELEC,Westin Austin Downtown - Tesla Destination,310 E 5th St,,Austin,TX,78701,,512-391-2333  877-798-3752,E,,Public,,,,,,,3,,,Tesla Destination,https://www.tesla.com/destination-charging,200-9,30.26662,-97.740375,2022-10-06,115658,2023-01-18 15:15:20 UTC,P,,,2017-09-08,,,,,TESLA,US,,,,Public,,public,,,HOTEL,,,,,,,Free,,,,,,,,,,,,,,,,,,,false,
ELEC,"Best Western - Bay City, TX - Tesla Destination",515 W 7th St,,Bay City,TX,77414,,979-323-9191  877-798-3752,E,,Public,,,,,,,3,,,Tesla Destination,https://www.tesla.com/destination-charging,200-9,28.98298,-95.984724,2022-10-06,115659,2023-01-18 15:15:20 UTC,P,,,2017-09-22,,,,,J1772 TESLA,US,,,,Public,,public,,,HOTEL,,,,,,,Free,,,,,,,,,,,,,,,,,,,false,
ELEC,La Quinta Inn & Suites Bay City - Tesla Destination,5300 7th St,,Bay City,TX,77414,,979-323-9095  877-798-3752,E,,Public,,,,,,,2,,,Tesla Destination,https://www.tesla.com/destination-charging,200-9,28.989004,-95.928545,2022-10-06,115660,2023-01-18 15:15:20 UTC,P,,,2016-07-11,,,,,TESLA,US,,,,Public,,public,,,HOTEL,,,,,,,Free,,,,,,,,,,,,,,,,,,,false,
ELEC,Baymont Inn & Suites Baytown - Tesla Destination,7212 E Point Blvd,,Baytown,TX,77521,,281-839-1400  877-798-3752,E,,Public,,,,,,,3,,,Tesla Destination,https://www.tesla.com/destination-charging,GPS,29.80628,-94.984893,2022-10-06,115661,2023-01-18 15:15:20 UTC,P,,,2017-10-03,,,,,J1772 TESLA,US,,,,Public,,public,,,HOTEL,,,,,,,Free,,,,,,,,,,,,,,,,,,,false,
ELEC,"Homewood Suites by Hilton Beaumont, TX - Tesla Destination",3745 IH-10 S,,Beaumont,TX,77705,,409-842-9990  877-798-3752,E,,Public,,,,,,,2,,,Tesla Destination,https://www.tesla.com/destination-charging,200-9,30.043046,-94.150541,2022-10-06,115662,2023-01-18 15:15:20 UTC,P,,,2016-02-08,,,,,TESLA,US,,,,Public,,public,,,HOTEL,,,,,,,Free,,,,,,,,,,,,,,,,,,,false,
ELEC,Kenjo's Barbeque - Tesla Destination,200 E Sanbernard St,,Brazoria,TX,77422,,979-798-4227  877-798-3752,E,,Public,,,,,,,4,,,Tesla Destination,https://www.tesla.com/destination-charging,200-8,29.048805,-95.566459,2022-10-06,115666,2023-01-18 15:15:20 UTC,P,,,2015-04-06,,,,,J1772 TESLA,US,,,,Public,,public,,,RESTAURANT,,,,,,,Free,,,,,,,,,,,,,,,,,,,false,
ELEC,Coach Light Inn Brenham - Tesla Destination,2242 S Market St,,Brenham,TX,77833,,979-836-5657  877-798-3752,E,,Public,,,,,,,2,,,Tesla Destination,https://www.tesla.com/destination-charging,200-9,30.149202,-96.386061,2022-10-06,115667,2023-01-18 15:15:20 UTC,P,,,2016-08-29,,,,,TESLA,US,,,,Public,,public,,,INN,,,,,,,Free,,,,,,,,,,,,,,,,,,,false,
ELEC,Holiday Inn Express & Suites Brenham South - Tesla Destination,2685 Schutle Blvd,,Brenham,TX,77833,,979-830-5331  877-798-3752,E,,Public,,,,,,,4,,,Tesla Destination,https://www.tesla.com/destination-charging,200-8,30.140265,-96.40033,2022-10-06,115668,2023-01-18 15:15:20 UTC,P,,,2017-11-29,,,,,TESLA,US,,,,Public,,public,,,HOTEL,,,,,,,Free,,,,,,,,,,,,,,,,,,,false,
ELEC,La Quinta Inn & Suites Brookshire - Tesla Destination,721 FM 1489 Rd,,Brookshire,TX,77007,,281-375-8888  877-798-3752,E,,Public,,,,,,,3,,,Tesla Destination,https://www.tesla.com/destination-charging,200-9,29.777438,-95.96685,2022-10-06,115669,2023-01-18 15:15:20 UTC,P,,,2016-08-30,,,,,J1772 TESLA,US,,,,Public,,public,,,HOTEL,,,,,,,Free,,,,,,,,,,,,,,,,,,,false,
ELEC,Hilton Garden Inn Bryan/College Station - Tesla Destination,3081 University Dr E,,Bryan,TX,77802,,979-703-7919  877-798-3752,E,,Public,,,,,,,2,,,Tesla Destination,https://www.tesla.com/destination-charging,200-9,30.646748,-96.302227,2022-10-06,115670,2023-01-18 15:15:20 UTC,P,,,2016-01-08,,,,,TESLA,US,,,,Public,,public,,,HOTEL,,,,,,,Free,,,,,,,,,,,,,,,,,,,false,
ELEC,Best Western Red River Inn - Tesla Destination,1008 Sheppard Rd,,Burkburnett,TX,76354,,940-569-9707  877-798-3752,E,,Public,,,,,,,2,,,Tesla Destination,https://www.tesla.com/destination-charging,200-9,34.077106,-98.555634,2022-10-06,115672,2023-01-18 15:15:20 UTC,P,,,2016-12-28,,,,,J1772 TESLA,US,,,,Public,,public,,,HOTEL,,,,,,,Free,,,,,,,,,,,,,,,,,,,false,
ELEC,Baja BBQ Shack - Tesla Destination,280 Marina,,Canyon Lake,TX,78133,,830-935-3122  877-798-3752,E,,Public,,,,,,,2,,,Tesla Destination,https://www.tesla.com/destination-charging,200-9,29.900689,-98.233946,2022-10-06,115674,2023-01-18 15:15:20 UTC,P,,,2018-10-04,,,,,TESLA,US,,,,Public,,public,,,RESTAURANT,,,,,,,Free,,,,,,,,,,,,,,,,,,,false,
ELEC,Wonderland Montessori Academy of Carrollton - Tesla Destination,1507 W Hebron Pkwy,,Carrollton,TX,75010,,972-225-5962  877-798-3752,E,,Public,,,,,,,1,,,Tesla Destination,https://www.tesla.com/destination-charging,200-8,33.020267,-96.930382,2022-10-06,115675,2023-01-18 15:15:20 UTC,P,,,2017-04-19,,,,,TESLA,US,,,,Public,,public,,,SCHOOL,,,,,,,Free,,,,,,,,,,,,,,,,,,,false,
ELEC,La Quinta Inn & Suites Austin - Cedar Park - Tesla Destination,1010 E Whitestone Blvd,,Cedar Park,TX,78613,,512-528-9300  877-798-3752,E,,Public,,,,,,,3,,,Tesla Destination,https://www.tesla.com/destination-charging,200-9,30.524131,-97.817548,2022-10-06,115677,2023-01-18 15:15:20 UTC,P,,,2017-10-31,,,,,J1772 TESLA,US,,,,Public,,public,,,HOTEL,,,,,,,Free,,,,,,,,,,,,,,,,,,,false,
ELEC,Holiday Inn Express Hotel & Suites Clute Southwest - Tesla Destination,1117 Hwy 332,,Clute,TX,77531,,979-266-8746  877-798-3752,E,,Public,,,,,,,1,,,Tesla Destination,https://www.tesla.com/destination-charging,200-8,29.01086,-95.411242,2022-10-06,115679,2023-01-18 15:15:20 UTC,P,,,2015-10-12,,,,,TESLA,US,,,,Public,,public,,,HOTEL,,,,,,,Free,,,,,,,,,,,,,,,,,,,false,
ELEC,Hampton Inn & Suites Lake Jackson-Clute - Tesla Destination,1121 Hwy 332,,Clute,TX,77531,,979-265-3200  877-798-3752,E,,Public,,,,,,,1,,,Tesla Destination,https://www.tesla.com/destination-charging,200-8,29.010826,-95.41154,2022-10-06,115680,2023-01-18 15:15:20 UTC,P,,,2015-10-12,,,,,TESLA,US,,,,Public,,public,,,HOTEL,,,,,,,Free,,,,,,,,,,,,,,,,,,,false,
ELEC,Embassy Suites by Hilton College Station - Tesla Destination,201 University Dr E,,College Station,TX,77840,,979-260-6000  877-798-3752,E,,Public,,,,,,,3,,,Tesla Destination,https://www.tesla.com/destination-charging,200-9,30.629312,-96.334004,2022-10-06,115681,2023-01-18 15:15:20 UTC,P,,,2017-09-25,,,,,J1772 TESLA,US,,,,Public,,public,,,HOTEL,,,,,,,Free,,,,,,,,,,,,,,,,,,,false,
ELEC,Best Western Plus College Station Inn & Suites - Tesla Destination,950 Arrington Rd,,College Station,TX,77845,,979-704-6444  877-798-3752,E,,Public,,,,,,,2,,,Tesla Destination,https://www.tesla.com/destination-charging,200-9,30.5642077,-96.2665727,2022-10-06,115682,2023-01-18 15:15:20 UTC,P,,,2015-05-27,,,,,J1772 TESLA,US,,,,Public,,public,,,HOTEL,,,,,,,Free,,,,,,,,,,,,,,,,,,,false,
ELEC,Homewood Suites by Hilton College Station - Tesla Destination,950 University Dr E,,College Station,TX,77840,,979-846-0400  877-798-3752,E,,Public,,,,,,,1,,,Tesla Destination,https://www.tesla.com/destination-charging,200-9,30.633489,-96.323218,2022-10-06,115683,2023-01-18 15:15:20 UTC,P,,,2015-11-11,,,,,TESLA,US,,,,Public,,public,,,HOTEL,,,,,,,Free,,,,,,,,,,,,,,,,,,,false,
ELEC,Hotel Faust - Tesla Destination,717 High St,,Comfort,TX,78013,,830-995-3030  877-798-3752,E,,Public,,,,,,,1,,,Tesla Destination,https://www.tesla.com/destination-charging,200-9,29.966348,-98.90732,2022-10-06,115684,2023-01-18 15:15:20 UTC,P,,,2015-11-12,,,,,TESLA,US,,,,Public,,public,,,HOTEL,,,,,,,Free,,,,,,,,,,,,,,,,,,,false,
ELEC,Best Western On The Island - Tesla Destination,14050 South Padre Island Dr,,Corpus Christi,TX,78418,,361-960-5035  877-798-3752,E,,Public,,,,,,,2,,,Tesla Destination,https://www.tesla.com/destination-charging,200-9,27.6281711,-97.2232362,2022-10-06,115685,2023-01-18 15:15:20 UTC,P,,,2015-09-18,,,,,J1772 TESLA,US,,,,Public,,public,,,HOTEL,,,,,,,Free,,,,,,,,,,,,,,,,,,,false,
ELEC,Hawthorn Suites by Wyndham Corpus Christi - Tesla Destination,1442 S Padre Island Dr,,Corpus Christi,TX,78416,,361-854-3400  877-798-3752,E,,Public,,,,,,,3,,,Tesla Destination,https://www.tesla.com/destination-charging,200-9,27.744438,-97.442593,2022-10-06,115686,2023-01-18 15:15:20 UTC,P,,,2017-05-12,,,,,J1772 TESLA,US,,,,Public,,public,,,HOTEL,,,,,,,Free,,,,,,,,,,,,,,,,,,,false,
ELEC,SpringHill Suites Corpus Christi - Tesla Destination,4331 South Padre Island Dr,,Corpus Christi,TX,78411,,361-851-2000  877-798-3752,E,,Public,,,,,,,2,,,Tesla Destination,https://www.tesla.com/destination-charging,200-9,27.71813,-97.392836,2022-10-06,115688,2023-01-18 15:15:20 UTC,P,,,2016-03-16,,,,,TESLA,US,,,,Public,,public,,,HOTEL,,,,,,,Free,,,,,,,,,,,,,,,,,,,false,
ELEC,Hyatt Place Corpus Christi - Tesla Destination,6773 S Padre Island Dr,,Corpus Christi,TX,78412,,361-985-8888  877-798-3752,E,,Public,,,,,,,2,,,Tesla Destination,https://www.tesla.com/destination-charging,200-8,27.696245,-97.349457,2022-10-06,115690,2023-01-18 15:15:20 UTC,P,,,2016-03-16,,,,,TESLA,US,,,,Public,,public,,,HOTEL,,,,,,,Free,,,,,,,,,,,,,,,,,,,false,
ELEC,Hampton Inn & Suites - I37 & Navigation Blvd - Tesla Destination,917 N Navigation Blvd,,Corpus Christi,TX,78408,,361-884-4444  877-798-3752,E,,Public,,,,,,,2,,,Tesla Destination,https://www.tesla.com/destination-charging,200-8,27.80259,-97.453946,2022-10-06,115691,2023-01-18 15:15:20 UTC,P,,,2015-12-16,,,,,TESLA,US,,,,Public,,public,,,HOTEL,,,,,,,Free,,,,,,,,,,,,,,,,,,,false,
ELEC,Holiday Inn Express & Suites Corpus Christi - Tesla Destination,929 N Navigation Blvd,,Corpus Christi,TX,78408,,361-883-2900  877-798-3752,E,,Public,,,,,,,3,,,Tesla Destination,https://www.tesla.com/destination-charging,200-8,27.803051,-97.45418,2022-10-06,115692,2023-01-18 15:15:20 UTC,P,,,2016-01-13,,,,,TESLA,US,,,,Public,,public,,,HOTEL,,,,,,,Free,,,,,,,,,,,,,,,,,,,false,
ELEC,Candlewood Suites Corpus Christi - Tesla Destination,9225 S Padre Island Dr,,Corpus Christi,TX,78418,,361-937-8888  877-798-3752,E,,Public,,,,,,,3,,,Tesla Destination,https://www.tesla.com/destination-charging,200-9,27.675861,-97.304879,2022-10-06,115693,2023-01-18 15:15:20 UTC,P,,,2017-05-12,,,,,J1772 TESLA,US,,,,Public,,public,,,HOTEL,,,,,,,Free,,,,,,,,,,,,,,,,,,,false,
ELEC,Hampton Inn & Suites Dallas - North Park Area - Tesla Destination,10370 N Central Expy,,Dallas,TX,75231,,214-361-0033  877-798-3752,E,,Public,,,,,,,1,,,Tesla Destination,https://www.tesla.com/destination-charging,200-8,32.887017,-96.768894,2022-10-06,115694,2023-01-18 15:15:20 UTC,P,,,2017-05-31,,,,,TESLA,US,,,,Public,,public,,,HOTEL,,,,,,,Free,,,,,,,,,,,,,,,,,,,false,
ELEC,Consolidated Restaurant Operations - Tesla Destination,12200 Stemmons Fwy,,Dallas,TX,75234,,972-241-5500  877-798-3752,E,,Public,,,,,,,2,,,Tesla Destination,https://www.tesla.com/destination-charging,200-9,32.915716,-96.896088,2022-10-06,115695,2023-01-18 15:15:20 UTC,P,,,2016-01-12,,,,,TESLA,US,,,,Public,,public,,,OFFICE_BLDG,,,,,,,Free,,,,,,,,,,,,,,,,,,,false,
ELEC,NYLO Dallas South Side - Tesla Destination,1325 S Lamar St,,Dallas,TX,75215,,214-421-1080  877-798-3752,E,,Public,,,,,,,1,,,Tesla Destination,https://www.tesla.com/destination-charging,200-9,32.7675371,-96.7962415,2022-10-06,115696,2023-01-18 15:15:20 UTC,P,,,2014-09-24,,,,,TESLA,US,,,,Public,,public,,,HOTEL,,,,,,,Free,,,,,,,,,,,,,,,,,,,false,
